,NAME,ADDRESS,CITY,ZIPCODE,STATEA,BUILDING_COST,CONTENT_COST,BUILDING_AREA,HUSBT,YEARBUILT,NUMSTORIES,SCHOOLID,EFCLASS,TRACT,LATITUDE,LONGITUDE,OCCUPANCY,CENSUSBLOCK,TERRAINID
0,Leahi Hospital - Young Bldg -  District*,3675 Kilauea Ave.,Honolulu,96816,HI,53074000,79611000,175538,CECBH,1980,7,HI000179,EFHM,15003005700,21.27340226,-157.8009899,COM6,1.5003E+14,4
1,Leahi Hospital Young Building -  New Wa*,3675 Kilauea Ave.,Honolulu,96816,HI,43650000,65475000,144369,CECBH,1980,7,HI000186,EFHM,15003005700,21.27340226,-157.8009899,COM6,1.5003E+14,4
2,HONOLULU EOC,1130 ALAPAI ST,HONOLULU,96813,HI,1180000,1770000,4641,CECBH,1991,1,HI000012,EFEO,15003003900,21.304063,-157.85475,GOV2,1.5003E+14,4
3,Leahi Hospital,3675 KILAUEA AVE,HONOLULU,96816,HI,16520000,24780000,54639,CERBM,1980,1,HI000174,EFHM,15003005700,21.273032,-157.802007,COM6,1.5003E+14,4
4,Leahi Hospital,3675 Kilauea Ave,Honolulu,96816,HI,16800000,25200000,55565,CERBM,nan,1,HI000061,EFHL,15003000800,21.27303,-157.80201,COM6,1.5003E+14,4
5,Kaiser Honolulu Clinic,1010 PENSACOLA ST,HONOLULU,96814,HI,4150000,6225000,13726,CERBM,1980,1,HI000136,EFHM,15003005700,21.301111,-157.846149,COM6,1.5003E+14,4
6,Kaiser Honolulu Clinic,1010 Pensacola St,Honolulu,96814,HI,16800000,25200000,55565,CERBM,nan,1,HI000052,EFHL,15003003501,21.30111,-157.84615,COM6,1.5003E+14,4
7,Kaiser Punawai Clinic,94-235 LEOKU ST,WAIPAHU,96797,HI,4150000,6225000,13726,CERBM,1970,4,HI000144,EFHM,15003005700,21.379903,-158.023462,COM6,1.5003E+14,4
8,Kaiser Punawai Clinic,94-235 Leoku St,Waipahu,96797,HI,8400000,12600000,27782,CERBM,1970,4,HI000097,EFHM,15003008914,21.3799,-158.02346,COM6,1.5003E+14,4
9,Kapiolani Medical Center,1637 BINGHAM ST,HONOLULU,96826,HI,4150000,6225000,13726,CERBM,1940,5,HI000146,EFHM,15003005700,21.299408,-157.832805,COM6,1.5003E+14,4
10,Kapiolani Medical Center,1637 BINGHAM ST,HONOLULU,96826,HI,4150000,6225000,13726,CERBM,1978,5,HI000148,EFHM,15003005700,21.299408,-157.832805,COM6,1.5003E+14,4
11,Kapiolani Medical Center,1637 Bingham St,Honolulu,96826,HI,16800000,25200000,55565,CERBM,1964,5,HI000055,EFHL,15003002600,21.29941,-157.83281,COM6,1.5003E+14,4
12,Kapiolani Medical Center,1637 Bingham St,Honolulu,96826,HI,16800000,25200000,55565,CERBM,1978,5,HI000057,EFHL,15003002600,21.29941,-157.83281,COM6,1.5003E+14,4
13,Kapiolani Medical Center at Pali Momi,98-1079 MOANALUA RD,AIEA,96701,HI,4150000,6225000,13726,CERBM,1989,1,HI000152,EFHM,15003005700,21.383485,-157.93851,COM6,1.5003E+14,4
14,Kapiolani MC - Pali Momi,98-1079 Moanalua Rd,Aiea,96701,HI,16800000,25200000,55565,CERBM,1989,1,HI000108,EFHL,15003007808,21.38349,-157.93851,COM6,1.5003E+14,4
15,St. Francis Medical Center - West,2139 FORT WEAVER RD,EWA BEACH,96706,HI,4150000,6225000,13726,CERBM,1989,5,HI000206,EFHM,15003005700,21.370859,-158.027285,COM6,1.5003E+14,3
16,St. Francis MC - West,2139 Fort Weaver Rd,Ewa Beach,96706,HI,16800000,25200000,55565,CERBM,1989,5,HI000090,EFHL,15003008614,21.37086,-158.02729,COM6,1.5003E+14,3
17,Straub Clinic & Hospital,888 S KING ST,HONOLULU,96813,HI,4150000,6225000,13726,CERBM,1933,4,HI000208,EFHM,15003005700,21.302669,-157.850598,COM6,1.5003E+14,4
18,Straub Clinic & Hospital,888 S KING ST,HONOLULU,96813,HI,4150000,6225000,13726,CERBM,1971,4,HI000209,EFHM,15003005700,21.302669,-157.850598,COM6,1.5003E+14,4
19,Straub Clinic & Hospital,888 S KING ST,HONOLULU,96813,HI,4150000,6225000,13726,CERBM,1950,4,HI000211,EFHM,15003005700,21.302669,-157.850598,COM6,1.5003E+14,4
20,Straub Clinic & Hospital,888 S King St,Honolulu,96813,HI,8400000,12600000,27782,CERBM,1933,4,HI000047,EFHM,15003004100,21.30267,-157.8506,COM6,1.5003E+14,4
21,Straub Clinic & Hospital,888 S King St,Honolulu,96813,HI,8400000,12600000,27782,CERBM,1971,4,HI000048,EFHM,15003004100,21.30267,-157.8506,COM6,1.5003E+14,4
22,Straub Clinic & Hospital,888 S King St,Honolulu,96813,HI,8400000,12600000,27782,CERBM,1950,4,HI000050,EFHM,15003004100,21.30267,-157.8506,COM6,1.5003E+14,4
23,Hamilton Library,2540 The Mall,HONOLULU,96848,HI,144574560,216861840,401596,CERBM,1968,4,HI001958,EFS2,15003002701,21.300728,-157.816166,EDU2,1.5003E+14,4
24,Moore Hall,1890 East West Road,HONOLULU,96848,HI,33282000,49923000,110940,CERBM,1969,5,HI001948,EFS2,15003002701,21.30098,-157.815065,EDU2,1.5003E+14,4
25,Snyder Hall,2538 The Mall,HONOLULU,96848,HI,30015000,45022500,60030,CERBM,1962,5,HI001949,EFS2,15003002701,21.300289,-157.817159,EDU2,1.5003E+14,4
26,Webster Hall,2528 The Mall,HONOLULU,96848,HI,17867700,26801550,59559,CERBM,1961,4,HI001944,EFS2,15003002701,21.300611,-157.81773,EDU2,1.5003E+14,4
27,Edmundson Hall,2538 The Mall,HONOLULU,96848,HI,13044000,19566000,43480,CERBM,1963,4,HI001942,EFS2,15003002701,21.300508,-157.816691,EDU2,1.5003E+14,4
28,Spalding Hall,2540 Maile Way,HONOLULU,96848,HI,9903600,14855400,33012,CERBM,1961,4,HI001945,EFS2,15003002701,21.300826,-157.817378,EDU2,1.5003E+14,4
29,UH - West Oahu 2011,91-1001 Farrington Hwy,Kapolei,96707,HI,119703628.8,179555443.2,618240,CERBM,1990,3,HI001964,EFS2,15003008606,21.3552,-158.0561,EDU2,1.5003E+14,2
30,Hawaii Institute of Geophysics ,2525 Correa Road,HONOLULU,96848,HI,38012400,57018600,126708,CERBM,1963,4,HI001943,EFS2,15003002701,21.298199,-157.816629,EDU2,1.5003E+14,4
31,Bilger Addition,2445 The Mall,HONOLULU,96848,HI,36665000,54997500,73330,CERBM,1972,4,HI001931,EFS2,15003002701,21.298931,-157.81672,EDU2,1.5003E+14,4
32,Kuykendall Hall,1773 Donagho Road,HONOLULU,96848,HI,32857500,49286250,87620,CERBM,1964,4,HI001954,EFS2,15003002701,21.29839,-157.817598,EDU2,1.5003E+14,4
33,Sakamaki Hall,2530 Dole street,HONOLULU,96848,HI,26161800,39242700,87206,CERBM,1976,4,HI001913,EFS2,15003002701,21.297511,-157.817061,EDU2,1.5003E+14,4
34,St. John Laboratory Complex,3190 Maile Way,HONOLULU,96848,HI,62898000,94347000,125796,CERBM,1969,7,HI001957,EFS2,15003002701,21.301661,-157.815319,EDU2,1.5003E+14,4
35,Gilmore Hall,3050 Maile Way,HONOLULU,96848,HI,25247100,37870650,73180,CERBM,1978,7,HI001922,EFS2,15003002701,21.301635,-157.816688,EDU2,1.5003E+14,4
36,Agricultural Science Facility,1955 East West Road,HONOLULU,96848,HI,55393000,83089500,110786,CERBM,1995,4,HI001959,EFS2,15003002701,21.302777,-157.813818,EDU2,1.5003E+14,4
37,Marine Sciences Building,1000 Pope Road,HONOLULU,96848,HI,54912500,82368750,95500,CERBM,1984,6,HI001925,EFS2,15003002701,21.297942,-157.8157,EDU2,1.5003E+14,4
38,Watanabe Hall,2505 Correa Road,HONOLULU,96848,HI,33083500,49625250,66167,CERBM,1972,4,HI001939,EFS2,15003002701,21.298392,-157.815763,EDU2,1.5003E+14,4
39,Chaminade University,3140 Waialae Ave,Honolulu,96816,HI,47043851.4,70565777.1,242970,CERBM,1990,2,HI001960,EFS2,15003002701,21.2906,-157.8074,EDU2,1.5003E+14,4
40,Holmes Hall,1540 Dole Street,HONOLULU,96848,HI,44273000,66409500,88546,CERBM,1972,4,HI001941,EFS2,15003002701,21.296965,-157.816042,EDU2,1.5003E+14,4
41,Saunders Hall,2424 Maile Way,HONOLULU,96848,HI,43724610,65586915,126738,CERBM,1973,7,HI001905,EFS2,15003002701,21.300572,-157.819132,EDU2,1.5003E+14,4
42,Shidler College of Business,2404 Maile Way,HONOLULU,96848,HI,42900000,64350000,143000,CERBM,1972,5,HI001908,EFS2,15003002701,21.301096,-157.820285,EDU2,1.5003E+14,4
43,Leeward Comm College,96-045 Ala Ike,Pearl City,9672,HI,32528160,48792240,168000,CERBM,1990,2,HI001963,EFS2,15003008701,21.3927,-157.9838,EDU2,1.5003E+14,4
44,Hawaii Pacific Uni at HI Loa,15-045 Kamehameha Hwy,Kaneohe,96744,HI,20330100,30495150,105000,CERBM,1990,3,HI001961,EFS2,15003011000,21.3801,-157.7839,EDU2,1.5003E+14,4
45,"Leahi Hospital Young Building -  Lndy, *",3675 Kilauea Ave.,Honolulu,96816,HI,13640000,20460000,45113,CECBL,1980,2,HI000185,EFHM,15003005700,21.27340226,-157.8009899,COM6,1.5003E+14,4
46,Leahi Hospital Young Building -  Dining*,3675 Kilauea Ave.,Honolulu,98816,HI,13200000,19800000,43658,CECBL,1980,1,HI000182,EFHM,15003005700,21.27340226,-157.8009899,COM6,1.5003E+14,4
47,Leahi Hosp - Trotter Bldg -  Hospital,3675 Kilauea Ave.,Honolulu,96816,HI,12301600,18452400,40687,CECBL,1980,2,HI000173,EFHM,15003005700,21.27340226,-157.8009899,COM6,1.5003E+14,4
48,Leahi Hospital - Atherton Bldg -  Hospi*,3675 Kilauea Ave.,Honolulu,96816,HI,10113600,15170400,33450,CECBL,1980,2,HI000175,EFHM,15003005700,21.27340226,-157.8009899,COM6,1.5003E+14,4
49,Leahi Hospital -Nurse Qtr #1 Wilcox,3675 Kilauea Ave.,Honolulu,96816,HI,8352000,12528000,27624,CECBL,1980,1,HI000180,EFHM,15003005700,21.27340226,-157.8009899,COM6,1.5003E+14,4
50,Maui Memorial Hospital,221 Mahalani Street,Wailuku,96793,HI,25875000,38812500,85580,CECBL,2006,3,HI000191,EFHL,15009031000,20.884141,-156.48945,COM6,1.5009E+14,4
51,Maui PD,55 Mahalani Street,Wailuku,96793,HI,286260,429390,1126,CECBL,1987,3,HI000053,EFPS,15009031000,20.888097,-156.488102,GOV2,1.5009E+14,4
52,Kahului Ambulance,230 Hana Highway,Kahului,96732,HI,9674835,14512252.5,31999,CECBL,1966,3,HI000133,EFHS,15009031900,20.888825,-156.459405,COM6,1.5009E+14,4
53,Lanai CH,628 7th Street,Lanai City,96763,HI,5395455,8093182.5,17845,CECBL,1968,2,HI000169,EFHS,15009031601,20.826577,-156.917086,COM6,1.5009E+14,4
54,Hana Highway Ambulance,4590 Hana Highway,Hana,96713,HI,1552500,2328750,5135,CECBL,1987,3,HI000119,EFHS,15009030100,20.781375,-156.006363,COM6,1.5009E+14,4
55,Lanai City Ambulance,387 Ehunanu Circle,Lanai City,96763,HI,379500,569250,1255,CECBL,1991,3,HI000170,EFHS,15009031601,20.828272,-156.922869,COM6,1.5009E+14,3
56,Kona CH,79-1019 Haukapila Street,Kealakeua,96750,HI,78400,117600,259,CECBL,1996,3,HI000156,EFHM,15001021402,19.52007,-155.91775,COM6,1.5001E+14,3
57,Psychiatric Facility/KCH,79-1019 Haukapila Street,Kealakekua,96750,HI,20600,30900,68,CECBL,1998,2,HI000196,EFHM,15001021402,19.52067,-155.91773,COM6,1.5001E+14,3
58,Special Services/KCH,79-1019 Haukapila Street,Kealakekua,96750,HI,17800,26700,59,CECBL,1996,2,HI000204,EFHM,15001021402,19.51977,-155.91762,COM6,1.5001E+14,3
59,Kau Hospital,1 Kamani Street,Pahala,96777,HI,21600,32400,71,CECBL,1968,2,HI000153,EFHS,15001021202,19.19993,-155.47192,COM6,1.5001E+14,3
60,Campbell High School - Bldg I,91-950 NORTH RD EWA BCH,EWA BEACH,96716,HI,4312825,4312825,15683,CECBL,1974,1,HI001965,EFS1,15003008302,21.315775,-158.008347,EDU1,1.5003E+14,4
61,Kailua High School - Library,451 Ulumanu Drive,Kailua,96739,HI,2200000,2200000,8000,CECBL,1950,2,HI001973,EFS1,15003011103,21.38555556,-157.7480556,EDU1,1.5003E+14,4
62,Kailua High School - Caf+Â¬,451 Ulumanu Drive,Kailua,96736,HI,1650000,1650000,6000,CECBL,1950,1,HI001971,EFS1,15003011103,21.38555556,-157.7480556,EDU1,1.5003E+14,4
63,McKinley High School for Adults,634 Pensecola Street,Honolulu,96814,HI,6765550,6765550,24602,CECBL,1962,2,HI001976,EFS1,15003003700,21.29728889,-157.8476389,EDU1,1.5003E+14,4
64,KCCD EOC,4396 Rice St 107,Lihue,96766,HI,120000,180000,472,CECBL,1990,1,HI000004,EFEO,15007040500,21.9778,-159.3706,GOV2,1.5007E+14,4
65,Brigham Young Uni - CAC,55-220 Kulanui Street,Laie,96762,HI,24000000,36000000,60000,CECBL,1975,1,HI001974,EFS2,15003010202,21.64166667,-157.9241667,EDU2,1.5003E+14,4
66,Brigham Young Uni - Old Gym,55-220 Kulanui Street,Laie,96763,HI,12000000,18000000,30000,CECBL,1955,1,HI001975,EFS2,15003010202,21.64166667,-157.9241667,EDU2,1.5003E+14,4
67,CIVIL DEFENSE,4204 DIAMOND HEAD RD,HONOLULU,96815,HI,1813000,2719500,7131,CECBL,1991,1,HI000006,EFEO,15003000600,21.304063,-157.85475,GOV2,1.5003E+14,4
68,HCCD EOC,349 Kapiolani Street,Hilo,96720,HI,165600,248400,651,CECBL,1988,1,HI000001,EFEO,15001020400,19.71525,-155.08598,GOV2,1.5001E+14,4
69,Lahaina PS,1830 Honoapiilani Highway,Lahaina,96761,HI,490000,735000,1927,CECBL,1972,1,HI000054,EFPS,15009031402,20.904597,-156.684519,GOV2,1.5009E+14,3
70,Kaunakakai Fire Station,130 Ainoa Street,Kaunakakai,96748,HI,740800,1111200,2914,CECBL,1987,3,HI000074,EFFS,15009031700,21.090588,-157.017786,GOV2,1.5009E+14,4
71,Hana PS,4611 Hana Highway,Hana,96713,HI,660600,990900,2598,CECBL,1978,3,HI000051,EFPS,15009030100,20.762591,-155.993461,GOV2,1.5009E+14,4
72,Central Fire Station,466 Kinoole Street,Hilo,96720,HI,341550,512325,1343,CECBL,1999,1,HI000088,EFFS,15001020400,19.72035,-155.08615,GOV2,1.5001E+14,4
73,Kihei Fire Station,11 Waimahaihai St,Kihei,96753,HI,245600,368400,966,CECBL,1972,1,HI000062,EFFS,15009030709,20.734755,-156.453333,GOV2,1.5009E+14,3
74,Kualapuu Fire Station,2190 Farrington Ave.,Kualapuu,96729,HI,150000,225000,590,CECBL,1987,3,HI000075,EFFS,15009031801,21.16343,-157.050252,GOV2,1.5009E+14,3
75,MCCD EOC,200 S. High Street,Kahului,96793,HI,87878,131817,346,CECBL,1971,9,HI000005,EFEO,15009031000,20.885566,-156.504113,GOV2,1.5009E+14,4
76,Leahi Hospital Young Building -  Alexan*,3675 Kilauea Ave.,Honolulu,96816,HI,11980000,17970000,39623,CECBM,1980,3,HI000181,EFHM,15003005700,21.27340226,-157.8009899,COM6,1.5003E+14,4
77,Kula Hospital,100 Keokea Place,Kula,96790,HI,65205,97807.5,216,CECBM,1936,5,HI000165,EFHM,15009030301,20.701411,-156.357402,COM6,1.5009E+14,4
78,Acute CF/HMC,1190 Waianuenue Avenue,Hilo,96720,HI,244000,366000,807,CECBM,1981,4,HI000111,EFHL,15001020300,19.71783,-155.11332,COM6,1.5001E+14,4
79,Leahi Hospital - Nurse Qtr #14,3675 Kilauea Ave.,Honolulu,96816,HI,3688000,5532000,12198,SECBL,1980,1,HI000177,EFHM,15003005700,21.27340226,-157.8009899,COM6,1.5003E+14,4
80,Leahi Hospital Young Building -  Hospit*,3675 Kilauea Ave.,Honolulu,96816,HI,2250000,3375000,7442,SECBL,1980,1,HI000184,EFHM,15003005700,21.27340226,-157.8009899,COM6,1.5003E+14,4
81,Leahi Hospital Young Building -  Dr. Tr*,3675 Kilauea Ave.,Honolulu,96816,HI,2115200,3172800,6996,SECBL,1980,2,HI000183,EFHM,15003005700,21.27340226,-157.8009899,COM6,1.5003E+14,4
82,Leahi Hospital - Med Res Qtr#3,3675 Kilauea Ave.,Honolulu,96816,HI,796000,1194000,2633,SECBL,1980,1,HI000176,EFHM,15003005700,21.27340226,-157.8009899,COM6,1.5003E+14,4
83,Leahi Hospital - Staff Res #12 -  Alexa*,3675 Kilauea Ave.,Honolulu,96816,HI,748000,1122000,2474,SECBL,1980,1,HI000178,EFHM,15003005700,21.27340226,-157.8009899,COM6,1.5003E+14,4
84,Kahului Fire Station,200 Dairy Road,Kahului,96732,HI,858000,1287000,3375,SECBL,1991,1,HI000079,EFFS,15009031900,20.879144,-156.456538,GOV2,1.5009E+14,2
85,Kailua High School - Gym,451 Ulumanu Drive,Kailua,96738,HI,6875000,6875000,25000,SECBL,1950,1,HI001972,EFS1,15003011103,21.38555556,-157.7480556,EDU1,1.5003E+14,4
86,Castle Medical Center,640 ULUKAHIKI ST,KAILUA,96734,HI,16520000,24780000,54639,CERBL,2002,3,HI000112,EFHM,15003005700,21.38039,-157.757735,COM6,1.5003E+14,4
87,Castle Medical Center,640 Ulukahiki St,Kailua,96734,HI,16800000,25200000,55565,CERBL,2002,3,HI000068,EFHL,15003011000,21.38039,-157.75774,COM6,1.5003E+14,4
88,Kaiser Koolau Clinic,46-602 KAMEHAMEHA HWY,KANEOHE,96744,HI,4150000,6225000,13726,CERBL,1965,1,HI000140,EFHM,15003005700,21.400996,-157.800328,COM6,1.5003E+14,4
89,Kaiser Koolau Clinic,46-602 Kamehameha Hwy,Kaneohe,96744,HI,8400000,12600000,27782,CERBL,1965,1,HI000072,EFHM,15003010602,21.401,-157.80033,COM6,1.5003E+14,4
90,Kaiser Moanalua Medical Center,3288 MOANALUA RD,HONOLULU,96819,HI,4150000,6225000,13726,CERBL,1980,1,HI000142,EFHM,15003005700,21.363405,-157.899507,COM6,1.5003E+14,4
91,Kaiser Moanalua MC,3288 Moanalua Rd,Honolulu,96819,HI,16800000,25200000,55565,CERBL,nan,1,HI000032,EFHL,15003006701,21.36341,-157.89951,COM6,1.5003E+14,4
92,Kuakini Medical Center,347 N KUAKINI ST,HONOLULU,96817,HI,4150000,6225000,13726,CERBL,1938,2,HI000160,EFHM,15003005700,21.32171,-157.858251,COM6,1.5003E+14,4
93,Kuakini Medical Center,347 N KUAKINI ST,HONOLULU,96817,HI,4150000,6225000,13726,CERBL,1955,1,HI000161,EFHM,15003005700,21.32171,-157.858251,COM6,1.5003E+14,4
94,Kuakini Medical Center,347 N KUAKINI ST,HONOLULU,96817,HI,4150000,6225000,13726,CERBL,1932,1,HI000162,EFHM,15003005700,21.32171,-157.858251,COM6,1.5003E+14,4
95,Kuakini Medical Center,347 N KUAKINI ST,HONOLULU,96817,HI,4150000,6225000,13726,CERBL,1937,1,HI000163,EFHM,15003005700,21.32171,-157.858251,COM6,1.5003E+14,4
96,Kuakini Medical Center,347 N KUAKINI ST,HONOLULU,96817,HI,4150000,6225000,13726,CERBL,1932,1,HI000164,EFHM,15003005700,21.32171,-157.858251,COM6,1.5003E+14,4
97,Kuakini MC,347 N Kuakini St,Honolulu,96817,HI,8400000,12600000,27782,CERBL,1938,2,HI000039,EFHM,15003005000,21.32171,-157.85825,COM6,1.5003E+14,4
98,Kuakini MC,347 N Kuakini St,Honolulu,96817,HI,8400000,12600000,27782,CERBL,1955,1,HI000040,EFHM,15003005000,21.32171,-157.85825,COM6,1.5003E+14,4
99,Kuakini MC,347 N Kuakini St,Honolulu,96817,HI,8400000,12600000,27782,CERBL,1932,1,HI000041,EFHM,15003005000,21.32171,-157.85825,COM6,1.5003E+14,4
100,Kuakini MC,347 N Kuakini St,Honolulu,96817,HI,8400000,12600000,27782,CERBL,1937,1,HI000042,EFHM,15003005000,21.32171,-157.85825,COM6,1.5003E+14,4
101,Kuakini MC,347 N Kuakini St,Honolulu,96817,HI,8400000,12600000,27782,CERBL,1932,1,HI000043,EFHM,15003005000,21.32171,-157.85825,COM6,1.5003E+14,4
102,Queen's Health Care Center,377 KEAHOLE ST,HONOLULU,96825,HI,4150000,6225000,13726,CERBL,1999,2,HI000197,EFHM,15003005700,21.285026,-157.706824,COM6,1.5003E+14,3
103,Queen's Health Care Center,377 Keahole St,Honolulu,96825,HI,16800000,25200000,55565,CERBL,1982,2,HI000064,EFHL,15003000108,21.28503,-157.70682,COM6,1.5003E+14,3
104,Queen's Health Care Center,91-599 FARRINGTON HWY,KAPOLEI,96707,HI,4150000,6225000,13726,CERBL,1982,1,HI000198,EFHM,15003005700,21.332149,-158.081041,COM6,1.5003E+14,3
105,Queen's HC Center,91-599 Farrington Hwy,Kapolei,96707,HI,16800000,25200000,55565,CERBL,1999,1,HI000093,EFHL,15003011500,21.33215,-158.08104,COM6,1.5003E+14,3
106,Shriners Hospital,1310 PUNAHOU ST,HONOLULU,96814,HI,4150000,6225000,13726,CERBL,1980,1,HI000203,EFHM,15003005700,21.301196,-157.835755,COM6,1.5003E+14,4
107,Shiners Hospital,1310 Punahou St,Honolulu,96814,HI,4200000,6300000,13891,CERBL,nan,1,HI000053,EFHS,15003003502,21.3012,-157.83576,COM6,1.5003E+14,4
108,St. Francis Medical Center - West,2139 FORT WEAVER RD,EWA BEACH,96706,HI,4150000,6225000,13726,CERBL,1990,1,HI000207,EFHM,15003005700,21.370859,-158.027285,COM6,1.5003E+14,3
109,St. Francis MC - West,2139 Fort Weaver Rd,Ewa Beach,96706,HI,16800000,25200000,55565,CERBL,1990,1,HI000091,EFHL,15003008614,21.37086,-158.02729,COM6,1.5003E+14,3
110,Waipahu Clinic,94-275 MOKUOLA ST,WAIPAHU,96797,HI,4150000,6225000,13726,CERBL,1993,3,HI000233,EFHM,15003005700,21.385686,-158.002869,COM6,1.5003E+14,4
111,Waipahu Clinic,94-275 MOKUOLA ST,WAIPAHU,96797,HI,4150000,6225000,13726,CERBL,1998,1,HI000234,EFHM,15003005700,21.385686,-158.002869,COM6,1.5003E+14,4
112,Waipahu Clinic,94-275 Mokuola St,Waipahu,96797,HI,8400000,12600000,27782,CERBL,1993,3,HI000095,EFHM,15003008702,21.38569,-158.00287,COM6,1.5003E+14,4
113,Waipahu Clinic,94-275 Mokuola St,Waipahu,96797,HI,8400000,12600000,27782,CERBL,1998,1,HI000096,EFHM,15003008702,21.38569,-158.00287,COM6,1.5003E+14,4
114,KONAWAENA HIGH SCHOOL,81-1043 KONAWAENA SCHOOL ROAD,KEALAKEKUA,nan,HI,39426.05,39426.05,132,CERBL,1969,1,HI001770,EFS1,15001021402,19.51161,-155.9215,EDU1,1.5001E+14,3
115,KEAAU HIGH SCHOOL,16-725 KEAAU-PAHOA ROAD,KEAAU,nan,HI,32631.17,32631.17,120,CERBL,1975,1,HI001197,EFS1,15001021013,19.62116,-155.03986,EDU1,1.5001E+14,4
116,WAIAKEA ELEMENTARY SCHOOL,180 WEST PUAINAKO STREET,HILO,nan,HI,21400.78,21400.78,68,CERBL,1975,1,HI001182,EFS1,15001020500,19.6973,-155.08065,EDU1,1.5001E+14,4
117,Art Building,2535 The Mall,HONOLULU,96848,HI,47238600,70857900,157462,CERBL,1974,3,HI001914,EFS2,15003002701,21.299247,-157.817487,EDU2,1.5003E+14,4
118,Sinclair Library,2425 Campus Road,HONOLULU,96848,HI,37106055,55659082.5,117797,CERBL,1956,3,HI001933,EFS2,15003002701,21.298421,-157.820442,EDU2,1.5003E+14,4
119,Keller Hall,2565 The Mall,HONOLULU,96848,HI,24571500,36857250,49143,CERBL,1959,3,HI001937,EFS2,15003002701,21.299723,-157.815777,EDU2,1.5003E+14,4
120,Bilger Hall,2445 The Mall,HONOLULU,96848,HI,22471800,33707700,74906,CERBL,1952,3,HI001930,EFS2,15003002701,21.299375,-157.816696,EDU2,1.5003E+14,4
121,Physical Science Building,2565 The Mall,HONOLULU,96848,HI,12861900,19292850,42873,CERBL,1960,3,HI001938,EFS2,15003002701,21.299176,-157.816008,EDU2,1.5003E+14,4
122,Hemenway Hall,2445 Campus Road,HONOLULU,96848,HI,10458300,15687450,34861,CERBL,1939,2,HI001915,EFS2,15003002701,21.298789,-157.819685,EDU2,1.5003E+14,4
123,Sherman Laboratory,1910 East West Road,HONOLULU,96848,HI,24521000,36781500,49042,CERBL,1985,3,HI001923,EFS2,15003002701,21.302269,-157.81507,EDU2,1.5003E+14,4
124,Pope Laboratory,3190 Maile Way,HONOLULU,96848,HI,17904000,26856000,35808,CERBL,1973,1,HI001946,EFS2,15003002701,21.302633,-157.815154,EDU2,1.5003E+14,4
125,Stan Sheriff Center,1337 Lower Campus Road,HONOLULU,96848,HI,57000000,85500000,190000,CERBL,1994,1,HI001929,EFS2,15003002701,21.294294,-157.818893,EDU2,1.5003E+14,4
126,Physical Ed/Athletic Complex (HPER),1337 Lower Campus Road,HONOLULU,96848,HI,35760000,53640000,119200,CERBL,1982,3,HI001927,EFS2,15003002701,21.29475,-157.818161,EDU2,1.5003E+14,4
127,Law School,2515 Dole Street,HONOLULU,96848,HI,15957000,23935500,53190,CERBL,1985,2,HI001934,EFS2,15003002701,21.296466,-157.818734,EDU2,1.5003E+14,4
128,Law Library,2525 Dole Street,HONOLULU,96848,HI,10472175,15708262.5,33245,CERBL,1982,1,HI001935,EFS2,15003002701,21.296349,-157.817328,EDU2,1.5003E+14,4
129,Auxiliary Services,1951 East West Road,HONOLULU,96848,HI,12168000,18252000,24336,CERBL,1962,1,HI001952,EFS2,15003002701,21.302334,-157.814108,EDU2,1.5003E+14,4
130,"Korean Studies, Center for",1881 East West Road,HONOLULU,96848,HI,4970700,7456050,16569,CERBL,1980,2,HI001919,EFS2,15003002701,21.301126,-157.814175,EDU2,1.5003E+14,4
131,Queen Liliuokalani Center For SS,2600 Campus Road,HONOLULU,96848,HI,30900000,46350000,103000,CERBL,1996,3,HI001910,EFS2,15003002701,21.300502,-157.818385,EDU2,1.5003E+14,4
132,Architecture Building,2410 Campus Road,HONOLULU,96848,HI,17400000,26100000,58000,CERBL,1996,3,HI001907,EFS2,15003002701,21.299843,-157.82068,EDU2,1.5003E+14,4
133,George Hall,2560 Campus Road,HONOLULU,96848,HI,17184795,25777192.5,49811,CERBL,1922,3,HI001909,EFS2,15003002701,21.300426,-157.820193,EDU2,1.5003E+14,4
134,Crawford Hall,2550 Campus Road,HONOLULU,96848,HI,8508390,12762585,24662,CERBL,1938,3,HI001916,EFS2,15003002701,21.300262,-157.819559,EDU2,1.5003E+14,4
135,"Astronomy, Institute for",2680 Woodlawn Drive,HONOLULU,96848,HI,16620000,24930000,55400,CERBL,1976,2,HI001904,EFS2,15003002900,21.307299,-157.811579,EDU2,1.5003E+14,4
136,Music Building Complex,2411 Dole Street,HONOLULU,96848,HI,13491000,20236500,44970,CERBL,1973,2,HI001924,EFS2,15003002701,21.295717,-157.820645,EDU2,1.5003E+14,4
137,University High School #3,1776 University Ave,HONOLULU,96848,HI,8172300,12258450,27241,CERBL,1957,2,HI001936,EFS2,15003002702,21.297955,-157.821785,EDU2,1.5003E+14,4
138,KHET TV (ETV Prod Building),2350 Dole Street,HONOLULU,96848,HI,5820000,8730000,19400,CERBL,1973,2,HI001920,EFS2,15003002702,21.29713,-157.82195,EDU2,1.5003E+14,4
139,"Hawaiian Studies, Center for",2645 Dole Street,HONOLULU,96848,HI,6600000,9900000,22000,CERBL,1997,2,HI001932,EFS2,15003002701,21.295128,-157.812125,EDU2,1.5003E+14,4
140,Lahaina Fire Station,1860 Honoapiilani Highway,Lahaina,96761,HI,938000,1407000,3690,CERBL,1972,1,HI000061,EFFS,15009031402,20.905294,-156.6848,GOV2,1.5009E+14,3
141,Hawaii State Hospital,45-691 KEAAHALA RD,KANEOHE,96744,HI,16520000,24780000,54639,WSF1,1980,1,HI000120,EFHM,15003005700,21.405512,-157.813558,COM6,1.5003E+14,4
142,Windward Health Center,45-691 KEAAHALA RD,KANEOHE,96744,HI,4150000,6225000,13726,WSF1,1980,1,HI000235,EFHM,15003005700,21.408735,-157.810525,COM6,1.5003E+14,4
143,Hawaii State Hospital,45-691 Keaahala Rd,Kaneohe,96744,HI,16800000,25200000,55565,WSF1,nan,1,HI000070,EFHL,15003010503,21.40551,-157.81356,COM6,1.5003E+14,4
144,Windward Health Center,45-691 Keaahala Rd,Kaneohe,96744,HI,8400000,12600000,27782,WSF1,nan,1,HI000071,EFHM,15003010503,21.40874,-157.81053,COM6,1.5003E+14,4
145,Rehabilitation Hospital of the Pacific,234 N KUAKINI ST,HONOLULU,96817,HI,8260000,12390000,27319,WSF1,1980,1,HI000201,EFHM,15003005700,21.32169,-157.853827,COM6,1.5003E+14,4
146,Rehabilitation Hospital - Pacific,234 N Kuakini St,Honolulu,96817,HI,8400000,12600000,27782,WSF1,nan,1,HI000035,EFHM,15003005000,21.32169,-157.85383,COM6,1.5003E+14,4
147,Diamond Head Health Center,3627 KILAUEA AVE,HONOLULU,96816,HI,4150000,6225000,13726,WSF1,1980,1,HI000114,EFHM,15003005700,21.273754,-157.802857,COM6,1.5003E+14,4
148,Diamond Head HC,3627 Kilauea Ave,Honolulu,96816,HI,8400000,12600000,27782,WSF1,nan,1,HI000062,EFHM,15003000800,21.27375,-157.80286,COM6,1.5003E+14,4
149,Kaiser Foundation Hospital,3288 MOANALUA ROAD,HONOLULU,96819,HI,4150000,6225000,13726,WSF1,1980,1,HI000134,EFHM,15003005700,21.36863,-157.90677,COM6,1.5003E+14,4
150,Kaiser FH,3288 Moanalua Rd,Honolulu,96819,HI,8400000,12600000,27782,WSF1,nan,1,HI000109,EFHM,15003007502,21.36863,-157.90677,COM6,1.5003E+14,4
151,Kaiser Hawaii Kai Clinic,6700 KALANIANAOLE HWY,HONOLULU,96824,HI,4150000,6225000,13726,WSF1,1980,1,HI000135,EFHM,15003005700,21.284427,-157.709439,COM6,1.5003E+14,3
152,Kaiser Hawaii Kai Clinic,6700 Kalanianaole Hwy,Honolulu,96824,HI,8400000,12600000,27782,WSF1,nan,1,HI000065,EFHM,15003000108,21.28443,-157.70944,COM6,1.5003E+14,3
153,Kaiser Kahuku Clinic,56-565 KAMEHAMEHA HWY,KAHUKU,96731,HI,4150000,6225000,13726,WSF1,1980,1,HI000137,EFHM,15003005700,21.674908,-157.945786,COM6,1.5003E+14,4
154,Kaiser Kahuku Clinic,56-565 Kamehameha Hwy,Kahuku,96731,HI,8400000,12600000,27782,WSF1,nan,1,HI000110,EFHM,15003010100,21.67491,-157.94579,COM6,1.5003E+14,4
155,Kahuku High & Interm - Bldg A,56-490 KAM HWY,KAHUKU,96731,HI,3426675,3426675,19581,WSF1,1993,1,HI001148,EFS1,15003010100,21.675327,-157.947965,EDU1,1.5003E+14,4
156,Kahuku High & Interm - Bldg X,56-490 KAM HWY,KAHUKU,96731,HI,2255400,2255400,12888,WSF1,1980,1,HI001160,EFS1,15003010100,21.675327,-157.947965,EDU1,1.5003E+14,4
157,Kahuku High & Interm - Bldg O,56-490 KAM HWY,KAHUKU,96731,HI,602350,602350,3442,WSF1,1971,1,HI001153,EFS1,15003010100,21.675327,-157.947965,EDU1,1.5003E+14,4
158,Kahuku Elementary - Bldg C,56-170 PUALALEA ST,KAHUKU,96731,HI,545300,545300,3116,WSF1,1991,1,HI001147,EFS1,15003010100,21.674326,-157.951093,EDU1,1.5003E+14,4
159,WAIALUA EOC,67-170 FARRINGTON HWY,WAIALUA,96791,HI,4652000,6978000,18298,WSF1,1983,1,HI000009,EFEO,15003010100,21.674847,-157.946258,GOV2,1.5003E+14,4
160,Kaiser Mililani Clinic,95-660 LANIKUHANA AVE,MILILANI,96789,HI,4150000,6225000,13726,WSF1,1991,1,HI000141,EFHM,15003005700,21.450014,-158.005083,COM6,1.5003E+14,4
161,Kaiser Mililani Clinic,95-660 Lanikuhana Ave,Mililani,96789,HI,8400000,12600000,27782,WSF1,1991,1,HI000098,EFHM,15003008917,21.45001,-158.00508,COM6,1.5003E+14,4
162,Kaiser Nanaikeola Clinic,87-2116 FARRINGTON HWY,WAIANAE,96792,HI,4150000,6225000,13726,WSF1,1997,1,HI000143,EFHM,15003005700,21.386217,-158.149397,COM6,1.50039E+14,3
163,Kaiser Nanaikeola Clinic,87-2116 Farrington Hwy,Waianae,96792,HI,8400000,12600000,27782,WSF1,1997,1,HI000084,EFHM,15003940002,21.38622,-158.1494,COM6,1.50039E+14,3
164,Kapiolani Medical Center,1637 BINGHAM ST,HONOLULU,96826,HI,4150000,6225000,13726,WSF1,1965,1,HI000150,EFHM,15003005700,21.299408,-157.832805,COM6,1.5003E+14,4
165,Kapiolani Medical Center,1637 Bingham St,Honolulu,96826,HI,16800000,25200000,55565,WSF1,1965,1,HI000059,EFHL,15003002600,21.29941,-157.83281,COM6,1.5003E+14,4
166,Lanakila Health Center,1700 LANAKILA AVE,HONOLULU,96817,HI,4150000,6225000,13726,WSF1,1980,1,HI000171,EFHM,15003005700,21.327901,-157.861338,COM6,1.5003E+14,4
167,Lanakila Health Center,1700 Lanakila Ave,Honolulu,96817,HI,8400000,12600000,27782,WSF1,nan,1,HI000034,EFHM,15003004800,21.3279,-157.86134,COM6,1.5003E+14,4
168,Leeward Health Center,860 4TH ST,PEARL CITY,96782,HI,4150000,6225000,13726,WSF1,1980,1,HI000187,EFHM,15003005700,21.392836,-157.9695,COM6,1.5003E+14,4
169,Leeward Health Center,860 4th St,Pearl City,96782,HI,8400000,12600000,27782,WSF1,nan,1,HI000105,EFHM,15003008001,21.39284,-157.9695,COM6,1.5003E+14,4
170,Maluhia Elderly Care,1027 HALA DR,HONOLULU,96817,HI,4150000,6225000,13726,WSF1,1931,1,HI000190,EFHM,15003005700,21.329169,-157.861335,COM6,1.5003E+14,4
171,Maluhia Elderly Care,1027 Hala Dr,Honolulu,96817,HI,8400000,12600000,27782,WSF1,1931,1,HI000033,EFHM,15003004800,21.32917,-157.86134,COM6,1.5003E+14,4
172,Maunalani Hospital,5113 MAUNALANI CIR,HONOLULU,96816,HI,4150000,6225000,13726,WSF1,1980,1,HI000192,EFHM,15003005700,21.297345,-157.789022,COM6,1.5003E+14,4
173,Maunalani Hospital,5113 Maunalani Cir,Honolulu,96816,HI,8400000,12600000,27782,WSF1,nan,1,HI000063,EFHM,15003000902,21.29735,-157.78902,COM6,1.5003E+14,4
174,Straub Hawaii Kai Family Health,7192 KALANIANAOLE HWY,HONOLULU,96825,HI,4150000,6225000,13726,WSF1,1980,1,HI000214,EFHM,15003005700,21.278486,-157.705428,COM6,1.5003E+14,3
175,Straub Hawaii Kai FH,7192 Kalanianaole Hwy,Honolulu,96825,HI,8400000,12600000,27782,WSF1,nan,1,HI000066,EFHM,15003000112,21.27849,-157.70543,COM6,1.5003E+14,3
176,Wahiawa Clinic,910 CALIFORNIA AVE,WAHIAWA,96786,HI,4150000,6225000,13726,WSF1,1980,1,HI000229,EFHM,15003005700,21.498047,-158.025479,COM6,1.5003E+14,4
177,Wahiawa Clinic,910 California Ave,Wahiawa,96786,HI,8400000,12600000,27782,WSF1,nan,1,HI000082,EFHM,15003009300,21.49805,-158.02548,COM6,1.5003E+14,4
178,Waianae Health Center,86-234 FARRINGTON HWY,WAIANAE,96792,HI,4150000,6225000,13726,WSF1,1969,1,HI000231,EFHM,15003005700,21.430048,-158.180796,COM6,1.5003E+14,3
179,Waianae Health Center,86-234 Farrington Hwy,Waianae,96792,HI,8400000,12600000,27782,WSF1,1969,1,HI000083,EFHM,15003009703,21.43005,-158.1808,COM6,1.5003E+14,3
180,SAMUEL MAHELONA MEMORIAL HOSP,4800 KAWAIHAU ROAD,KAPAA,96746,HI,8400000,12600000,27782,WSF1,1986,1,HI000202,EFHM,15007040300,22.0902,-159.3169,COM6,1.5007E+14,4
181,KAUAI VETERANS MEM HOSPITAL,WAIMEA CANYON ROAD,WAIMEA,96796,HI,4200000,6300000,13891,WSF1,1981,2,HI000154,EFHS,15007040900,21.9581,-159.6704,COM6,1.5007E+14,4
182,Infusion Center/KCH,79-1019 Haukapila Street,Kealakekua,96750,HI,2000,3000,7,WSF1,1998,1,HI000121,EFHM,15001021402,19.51957,-155.91793,COM6,1.5001E+14,3
183,DESILVA ELEMENTARY SCHOOL,278 AINAKO AVENUE,HILO,nan,HI,7114.54,7114.54,30,WSF1,1963,1,HI001041,EFS1,15001020802,19.71285,-155.11724,EDU1,1.5001E+14,4
184,Dialysis Center/HMC,1190 Waianuenue Avenue,Hilo,96720,HI,4400,6600,15,WSF1,1968,1,HI000113,EFHL,15001020300,19.7183,-155.11047,COM6,1.5001E+14,4
185,Naalehu EMS,"95-1163 Kaalaiki Road, Building B",Naalehu,96722,HI,3200,4800,11,WSF1,1990,1,HI000195,EFHS,15001021202,19.06133,-155.58697,COM6,1.5001E+14,3
186,Naalehu Fire Station,95-1163 Kaalaiki Road,Naalehu,96772,HI,310500,465750,1221,WSF1,2006,1,HI000092,EFFS,15001021202,19.06133,-155.58663,GOV2,1.5001E+14,3
187,Kaiser High - Bldg B,511 LUNALILO HOME RD,HONOLULU,96825,HI,1262975,1262975,7217,WSF1,1971,1,HI001798,EFS1,15003000105,21.284778,-157.695995,EDU1,1.5003E+14,3
188,Kaiser High - Bldg B,511 Lunalilo Home Rd,Honolulu,96825,HI,1262.98,1262.98,7217,WSF1,1971,1,HI000560,EFS1,15003000112,21.28478,-157.696,EDU1,1.5003E+14,3
189,Campbell High - Bldg N,91-950 NORTH RD EWA BCH,EWA BEACH,96706,HI,3893400,3893400,22248,WSF1,1971,1,HI001603,EFS1,15003008302,21.315775,-158.008347,EDU1,1.5003E+14,4
190,Campbell High - Bldg E,91-950 NORTH RD EWA BCH,EWA BEACH,96706,HI,1478050,1478050,8446,WSF1,1973,1,HI001596,EFS1,15003008302,21.315775,-158.008347,EDU1,1.5003E+14,4
191,Pohakea Elementary - Bldg D,91-950 NORTH RD EWA BCH,EWA BEACH,96706,HI,1249150,1249150,7138,WSF1,1965,1,HI001498,EFS1,15003008302,21.313723,-158.009911,EDU1,1.5003E+14,4
192,Kaimiloa Elem - Bldg B,91-1028 KAUNOLU ST,EWA BEACH,96706,HI,1131375,1131375,6465,WSF1,1978,1,HI001771,EFS1,15003008302,21.319207,-158.009188,EDU1,1.5003E+14,4
193,Kaimiloa Elem - Bldg P25,91-1028 KAUNOLU ST,EWA BEACH,96706,HI,156800,156800,896,WSF1,1968,1,HI001177,EFS1,15003008302,21.319207,-158.009188,EDU1,1.5003E+14,4
194,Lincoln Elementary - Bldg H,1202 PROSPECT ST,HONOLULU,96813,HI,1323175,1323175,7561,WSF1,1956,1,HI001310,EFS1,15003004300,21.312892,-157.840543,EDU1,1.5003E+14,4
195,Stevenson Middle - Bldg C,1202 PROSPECT ST,HONOLULU,96813,HI,703675,703675,4021,WSF1,1954,1,HI001573,EFS1,15003004300,21.310328,-157.840243,EDU1,1.5003E+14,4
196,Kailua Intermediate - Bldg A,211 KUULEI RD,KAILUA,96734,HI,2599450,2599450,14854,WSF1,1953,1,HI001763,EFS1,15003011105,21.394057,-157.736191,EDU1,1.5003E+14,4
197,Kailua Elementary - Bldg H,315 KUULEI RD,KAILUA,96734,HI,1464400,1464400,8368,WSF1,1957,1,HI001743,EFS1,15003011105,21.395074,-157.74136,EDU1,1.5003E+14,4
198,Waialua High & Interm - Bldg F,67-595A KAHUI ST,WAIALUA,96791,HI,1896125,1896125,10835,WSF1,1955,1,HI001626,EFS1,15003009901,21.565831,-158.126461,EDU1,1.5003E+14,3
199,Waialua High & Intermediate - Bldg F,67-595A Kahui St,Waialua,96791,HI,1896.13,1896.13,10835,WSF1,1955,1,HI000983,EFS1,15003009904,21.56583,-158.12646,EDU1,1.5003E+14,3
200,WAIANAE EOC,87-1100 FARRINGTON HWY,WAIANAE,96792,HI,1650000,2475000,6490,WSF1,1956,1,HI000010,EFEO,15003009904,21.566661,-158.127608,GOV2,1.5003E+14,3
201,Leilehua High - Bldg Y,1515 CALIFORNIA AVE,WAHIAWA,96786,HI,2342725,2342725,13387,WSF1,1949,1,HI001295,EFS1,15003009200,21.500558,-158.012026,EDU1,1.5003E+14,4
202,Pearl City High - Bldg G,2100 HOOKIEKIE ST,PEARL CITY,96782,HI,2287775,2287775,13073,WSF1,1972,1,HI001463,EFS1,15003007810,21.414834,-157.952268,EDU1,1.5003E+14,4
203,Wheeler Middle - Bldg G,1 WILIKINA DR,WAHIAWA,96786,HI,1654625,1654625,9455,WSF1,1970,1,HI001895,EFS1,15003009000,21.486605,-158.038808,EDU1,1.5003E+14,4
204,Castle High - Bldg U,45-386 KANEOHE BAY DR,KANEOHE,96744,HI,1306025,1306025,7463,WSF1,1963,1,HI001082,EFS1,15003010602,21.403144,-157.794583,EDU1,1.5003E+14,4
205,Castle High - Bldg CC,45-386 KANEOHE BAY DR,KANEOHE,96744,HI,1169525,1169525,6683,WSF1,1990,1,HI001608,EFS1,15003010602,21.403144,-157.794583,EDU1,1.5003E+14,4
206,Castle High - Bldg DD,45-386 KANEOHE BAY DR,KANEOHE,96744,HI,1100400,1100400,6288,WSF1,1991,1,HI001610,EFS1,15003010602,21.403144,-157.794583,EDU1,1.5003E+14,4
207,Castle High - Bldg FF,45-386 KANEOHE BAY DR,KANEOHE,96744,HI,50000,50000,1000,WSF1,1999,1,HI001614,EFS1,15003010602,21.403144,-157.794583,EDU1,1.5003E+14,4
208,Waipahu High - Bldg M,94-1211 FARRINGTON HWY,WAIPAHU,96797,HI,2139725,2139725,12227,WSF1,1967,1,HI001704,EFS1,15003008701,21.387585,-157.993974,EDU1,1.5003E+14,4
209,Kalaheo High - Bldg I,730 ILIAINA ST,KAILUA,96734,HI,1771875,1771875,10125,WSF1,1966,1,HI001223,EFS1,15003010901,21.407988,-157.757733,EDU1,1.5003E+14,3
210,Kalaheo High - Bldg J,730 ILIAINA ST,KAILUA,96734,HI,782250,782250,4470,WSF1,1968,1,HI001224,EFS1,15003010901,21.407988,-157.757733,EDU1,1.5003E+14,3
211,Kailua High - Bldg T,451 ULUMANU DR,KAILUA,96734,HI,875000,875000,5000,WSF1,1969,1,HI001761,EFS1,15003011103,21.384813,-157.748181,EDU1,1.5003E+14,4
212,McKinley High - Bldg Q,1039 S KING ST,HONOLULU,96814,HI,1144500,1144500,6540,WSF1,1957,1,HI001366,EFS1,15003003700,21.299169,-157.848306,EDU1,1.5003E+14,4
213,Kapolei High - Bldg G,91-5007 KAPOLEI PKWY,KAPOLEI,96707,HI,6746075,6746075,38549,WSF1,2000,1,HI001261,EFS1,15003008607,21.328589,-158.068505,EDU1,1.5003E+14,4
214,Kapolei High - Bldg B,91-5007 KAPOLEI PKWY,KAPOLEI,96707,HI,2560075,2560075,14629,WSF1,2000,1,HI001259,EFS1,15003008607,21.328589,-158.068505,EDU1,1.5003E+14,4
215,Kapolei High - Bldg D,91-5007 KAPOLEI PKWY,KAPOLEI,96707,HI,1155700,1155700,6604,WSF1,2000,1,HI001260,EFS1,15003008607,21.328589,-158.068505,EDU1,1.5003E+14,4
216,Kapolei High - Bldg G,91-5007 Kapolei Pkwy,Kapolei,96707,HI,6746.08,6746.08,38549,WSF1,2000,1,HI000647,EFS1,15003011500,21.32859,-158.06851,EDU1,1.5003E+14,4
217,Kapolei High - Bldg B,91-5007 Kapolei Pkwy,Kapolei,96707,HI,2560.08,2560.08,14629,WSF1,2000,1,HI000645,EFS1,15003011500,21.32859,-158.06851,EDU1,1.5003E+14,4
218,Kapolei High - Bldg D,91-5007 Kapolei Pkwy,Kapolei,96707,HI,1155.7,1155.7,6604,WSF1,2000,1,HI000646,EFS1,15003011500,21.32859,-158.06851,EDU1,1.5003E+14,4
219,Webling Elementary - Bldg D,99-600 KULAWEA ST,AIEA,96701,HI,977900,977900,5588,WSF1,1968,1,HI001884,EFS1,15003007503,21.381247,-157.920317,EDU1,1.5003E+14,4
220,King Intermediate - Bldg J,46-155 KAM HWY,KANEOHE,96744,HI,2456825,2456825,14039,WSF1,1966,1,HI001854,EFS1,15003010505,21.428225,-157.806712,EDU1,1.5003E+14,3
221,August Ahrens Elem - Bldg K,94-1170 WAIPAHU ST,WAIPAHU,96797,HI,1985025,1985025,11343,WSF1,1973,1,HI001077,EFS1,15003008912,21.393931,-158.001794,EDU1,1.5003E+14,4
222,Puuhale Elementary - Bldg B,336 MOKAUEA ST,HONOLULU,96819,HI,1175650,1175650,6718,WSF1,1973,1,HI001503,EFS1,15003005900,21.326798,-157.884154,EDU1,1.5003E+14,4
223,Puuhale Elementary - Bldg P5,336 MOKAUEA ST,HONOLULU,96819,HI,156800,156800,896,WSF1,1966,1,HI001504,EFS1,15003005900,21.326798,-157.884154,EDU1,1.5003E+14,4
224,Puuhale Elementary - Bldg P6,336 MOKAUEA ST,HONOLULU,96819,HI,156800,156800,896,WSF1,1966,1,HI001505,EFS1,15003005900,21.326798,-157.884154,EDU1,1.5003E+14,4
225,Kamiloiki Elementary - Bldg E,7788 HAWAII KAI DR,HONOLULU,96825,HI,1171275,1171275,6693,WSF1,1975,1,HI001240,EFS1,15003000109,21.294265,-157.684931,EDU1,1.5003E+14,3
226,Kamiloiki Elementary - Bldg E,7788 Hawaii Kai Dr,Honolulu,96825,HI,1171.28,1171.28,6693,WSF1,1975,1,HI000626,EFS1,15003000111,21.29427,-157.68493,EDU1,1.5003E+14,3
227,Mauka Lani Elem - Bldg B,92-1300 PANANA ST,KAPOLEI,96707,HI,1379350,1379350,7882,WSF1,1973,1,HI001357,EFS1,15003008603,21.358313,-158.083313,EDU1,1.5003E+14,4
228,Mauka Lani Elem - Bldg P11,92-1300 PANANA ST,KAPOLEI,96707,HI,142100,142100,812,WSF1,1993,1,HI001358,EFS1,15003008603,21.358313,-158.083313,EDU1,1.5003E+14,4
229,Mauka Lani Elementary - Bldg B,92-1300 Panana St,Kapolei,96707,HI,1379.35,1379.35,7882,WSF1,1973,1,HI000775,EFS1,15003008614,21.35831,-158.08331,EDU1,1.5003E+14,4
230,Mauka Lani Elementary - Bldg P11,92-1300 Panana St,Kapolei,96707,HI,142.1,142.1,812,WSF1,1993,1,HI000776,EFS1,15003008614,21.35831,-158.08331,EDU1,1.5003E+14,4
231,Washington Middle - Bldg P2,1710 WAIOLA ST,HONOLULU,96826,HI,156800,156800,896,WSF1,1966,1,HI001878,EFS1,15003002500,21.29564,-157.835223,EDU1,1.5003E+14,4
232,Washington Middle - Bldg P3,1710 WAIOLA ST,HONOLULU,96826,HI,156800,156800,896,WSF1,1966,1,HI001879,EFS1,15003002500,21.29564,-157.835223,EDU1,1.5003E+14,4
233,Washington Middle - Bldg P4,1710 WAIOLA ST,HONOLULU,96826,HI,156800,156800,896,WSF1,1966,1,HI001880,EFS1,15003002500,21.29564,-157.835223,EDU1,1.5003E+14,4
234,Liliuokalani Elementary - Bldg D,3633 WAIALAE AVE,HONOLULU,96816,HI,850325,850325,4859,WSF1,1968,1,HI001305,EFS1,15003000800,21.281473,-157.797771,EDU1,1.5003E+14,4
235,Liholiho Elementary - Bldg B,838 9TH AVE,HONOLULU,96816,HI,781550,781550,4466,WSF1,1940,1,HI001297,EFS1,15003001400,21.278976,-157.806144,EDU1,1.5003E+14,4
236,Kawananakoa Middle - Bldg D,49 FUNCHAL ST,HONOLULU,96813,HI,1485050,1485050,8486,WSF1,1962,1,HI001836,EFS1,15003004300,21.318976,-157.851923,EDU1,1.5003E+14,4
237,Salt Lake Elem - Bldg A,1131 ALA LILIKOI,HONOLULU,96819,HI,1125250,1125250,6430,WSF1,1972,1,HI001558,EFS1,15003006805,21.35171,-157.91178,EDU1,1.5003E+14,3
238,Aikahi Elementary - Bldg E,281 ILIHAU ST,KAILUA,96734,HI,1357125,1357125,7755,WSF1,1964,1,HI001039,EFS1,15003010901,21.425076,-157.749681,EDU1,1.5003E+14,4
239,Ahuimanu Elementary - Bldg A,47-470 HUI AEKO PL,KANEOHE,96744,HI,1115975,1115975,6377,WSF1,1976,1,HI001014,EFS1,15003010306,21.435032,-157.830373,EDU1,1.5003E+14,4
240,Blanche Pope Elementary - Bldg D,41-133 HULI ST WAIM,WAIMANALO,96795,HI,1081675,1081675,6181,WSF1,1965,1,HI001594,EFS1,15003011302,21.328112,-157.695197,EDU1,1.50039E+14,4
241,Blanche Pope Elementary - Bldg D,41-133 Huli St ,Waimanalo,96795,HI,1081.68,1081.68,6181,WSF1,1965,1,HI000350,EFS1,15003940001,21.32811,-157.6952,EDU1,1.50039E+14,4
242,Highlands Intermediate - Bldg K,1460 HOOLAULEA ST,PEARL CITY,96782,HI,1503775,1503775,8593,WSF1,1967,1,HI001677,EFS1,15003008007,21.400958,-157.962619,EDU1,1.5003E+14,4
243,Highlands Intermediate - Bldg J,1460 HOOLAULEA ST,PEARL CITY,96782,HI,1499925,1499925,8571,WSF1,1959,1,HI001676,EFS1,15003008007,21.400958,-157.962619,EDU1,1.5003E+14,4
244,Pearl City Highlands Elem - Bldg F,1419 WAIMANO HOME RD,PEARL CITY,96782,HI,1350475,1350475,7717,WSF1,1958,1,HI001475,EFS1,15003008007,21.403094,-157.965466,EDU1,1.5003E+14,4
245,Solomon Elementary - Bldg P21,1701 *WILIKINA DR,SCHOFIELD BARRACKS,96857,HI,142100,142100,812,WSF1,1994,1,HI001568,EFS1,15003009501,21.491057,-158.0725,EDU1,1.5003E+14,4
246,Solomon Elementary - Bldg P22,1701 *WILIKINA DR,SCHOFIELD BARRACKS,96857,HI,142100,142100,812,WSF1,1994,1,HI001569,EFS1,15003009501,21.491057,-158.0725,EDU1,1.5003E+14,4
247,Solomon Elementary - Bldg P23,1701 *WILIKINA DR,SCHOFIELD BARRACKS,96857,HI,142100,142100,812,WSF1,1994,1,HI001570,EFS1,15003009501,21.491057,-158.0725,EDU1,1.5003E+14,4
248,Waipahu Elementary - Bldg B,94-465 WAIPAHU ST,WAIPAHU,96797,HI,1334025,1334025,7623,WSF1,1967,1,HI001689,EFS1,15003008703,21.384952,-158.015923,EDU1,1.5003E+14,4
249,Waimalu Elementary - Bldg B,98-825 MOANALUA RD,AIEA,96701,HI,1200325,1200325,6859,WSF1,1961,1,HI001644,EFS1,15003008002,21.389983,-157.950386,EDU1,1.5003E+14,4
250,Kapalama Elementary - Bldg E,1601 N SCHOOL ST,HONOLULU,96817,HI,1423975,1423975,8137,WSF1,1967,1,HI001254,EFS1,15003005600,21.334887,-157.869479,EDU1,1.5003E+14,4
251,Heeia Elementary - Bldg P1,46-202 HAIKU RD,KANEOHE,96744,HI,142100,142100,812,WSF1,1994,1,HI001655,EFS1,15003010506,21.418251,-157.808585,EDU1,1.5003E+14,4
252,Heeia Elementary - Bldg P2,46-202 HAIKU RD,KANEOHE,96744,HI,142100,142100,812,WSF1,1996,1,HI001656,EFS1,15003010506,21.418251,-157.808585,EDU1,1.5003E+14,4
253,Heeia Elementary - Bldg P1,46-202 Haiku Rd,Kaneohe,96744,HI,142.1,142.1,812,WSF1,1994,1,HI000413,EFS1,15003010507,21.41825,-157.80859,EDU1,1.5003E+14,4
254,Heeia Elementary - Bldg P2,46-202 Haiku Rd,Kaneohe,96744,HI,142.1,142.1,812,WSF1,1996,1,HI000414,EFS1,15003010507,21.41825,-157.80859,EDU1,1.5003E+14,4
255,Maemae Elementary - Bldg E,319 WYLLIE ST,HONOLULU,96817,HI,1415750,1415750,8090,WSF1,1956,1,HI001317,EFS1,15003004700,21.328516,-157.847599,EDU1,1.5003E+14,4
256,Noelani Elementary - Bldg C,2667 WOODLAWN DR,HONOLULU,96822,HI,1392475,1392475,7957,WSF1,1962,1,HI001439,EFS1,15003002900,21.305754,-157.811801,EDU1,1.5003E+14,4
257,Noelani Elementary - Bldg D,2667 WOODLAWN DR,HONOLULU,96822,HI,619500,619500,3540,WSF1,1970,1,HI001440,EFS1,15003002900,21.305754,-157.811801,EDU1,1.5003E+14,4
258,Pearl Harbor Kai Elem - Bldg E,99-659 KAM HWY,HONOLULU,96818,HI,1492050,1492050,8526,WSF1,1963,1,HI001487,EFS1,15003007400,21.34907,-157.938152,EDU1,1.5003E+14,4
259,Kapunahala Elementary - Bldg D,45-800 ANOI RD,KANEOHE,96744,HI,1365525,1365525,7803,WSF1,1962,1,HI001265,EFS1,15003010302,21.407895,-157.803996,EDU1,1.5003E+14,4
260,Kapunahala Elementary - Bldg D,45-800 Anoi Rd,Kaneohe,96744,HI,1365.53,1365.53,7803,WSF1,1962,1,HI000651,EFS1,15003010308,21.4079,-157.804,EDU1,1.5003E+14,4
261,Aliamanu Intermediate - Bldg M,3271 SALT LAKE BLVD,HONOLULU,96819,HI,806225,806225,4607,WSF1,1962,1,HI001052,EFS1,15003007000,21.342814,-157.915655,EDU1,1.5003E+14,4
262,Lanakila Elementary - Bldg F,717 N KUAKINI ST,HONOLULU,96817,HI,1257025,1257025,7183,WSF1,1965,1,HI001280,EFS1,15003004900,21.326437,-157.860702,EDU1,1.5003E+14,4
263,Shafter Elementary - Bldg C,2508 KAUA ST,FORT SHAFTER,96858,HI,834925,834925,4771,WSF1,1968,1,HI001563,EFS1,15003006600,21.341911,-157.884695,EDU1,1.5003E+14,4
264,Waimanalo Elem & Inter - Bldg S,41-1312 KALANIANAOLE HWY,WAIMANALO,96795,HI,1455475,1455475,8317,WSF1,1976,1,HI001685,EFS1,15003011301,21.345527,-157.715249,EDU1,1.5003E+14,4
265,Waimanalo Elem & Inter - Bldg R,41-1312 KALANIANAOLE HWY,WAIMANALO,96795,HI,778750,778750,4450,WSF1,1975,1,HI001684,EFS1,15003011301,21.345527,-157.715249,EDU1,1.5003E+14,4
266,Waimanalo Elem & Inter - Bldg S,41-1312 Kalanianaole Hwy,Waimanalo,96795,HI,1455.48,1455.48,8317,WSF1,1976,1,HI001010,EFS1,15003011300,21.34553,-157.71525,EDU1,1.5003E+14,4
267,Waimanalo Elem & Inter - Bldg R,41-1312 Kalanianaole Hwy,Waimanalo,96795,HI,778.75,778.75,4450,WSF1,1975,1,HI001009,EFS1,15003011300,21.34553,-157.71525,EDU1,1.5003E+14,4
268,Mokulele Elementary - Bldg E,3903 KAM HWY,HICKAM AFB,96853,HI,1129275,1129275,6453,WSF1,1961,1,HI001420,EFS1,15003007200,21.342974,-157.940894,EDU1,1.5003E+14,4
269,Pauoa Elementary - Bldg E,2301 PAUOA,HONOLULU,96813,HI,1369725,1369725,7827,WSF1,1969,1,HI001455,EFS1,15003004400,21.318615,-157.843998,EDU1,1.5003E+14,4
270,Lehua Elementary - Bldg E,781 LEHUA AVE,PEARL CITY,96782,HI,1281000,1281000,7320,WSF1,1965,1,HI001284,EFS1,15003008100,21.388696,-157.971168,EDU1,1.5003E+14,4
271,Lehua Elementary - Bldg E,781 Lehua Ave,Pearl City,96782,HI,1281,1281,7320,WSF1,1965,1,HI000702,EFS1,15003011400,21.3887,-157.97117,EDU1,1.5003E+14,4
272,Moanalua Middle - Bldg I,1289 MAHIOLE ST,HONOLULU,96819,HI,2057475,2057475,11757,WSF1,1968,1,HI001408,EFS1,15003006701,21.349755,-157.893408,EDU1,1.5003E+14,4
273,Moanalua Elem - Bldg E,1337 MAHIOLE ST,HONOLULU,96819,HI,1500275,1500275,8573,WSF1,1961,1,HI001393,EFS1,15003006701,21.348887,-157.891791,EDU1,1.5003E+14,4
274,Hickam Elementary - Bldg G,MANZELMAN ST,HICKAM AFB,96853,HI,956550,956550,5466,WSF1,1950,1,HI001663,EFS1,15003007300,21.342489,-157.963694,EDU1,1.5003E+14,4
275,Hickam Elementary - Bldg P8,MANZELMAN ST,HICKAM AFB,96853,HI,142100,142100,812,WSF1,1994,1,HI001667,EFS1,15003007300,21.342489,-157.963694,EDU1,1.5003E+14,4
276,Hickam Elementary - Bldg G,Manzelman St,Hickam AFB ,96853,HI,956.55,956.55,5466,WSF1,1950,1,HI000421,EFS1,15003007302,21.34249,-157.96369,EDU1,1.5003E+14,4
277,Hickam Elementary - Bldg P8,Manzelman St,Hickam AFB ,96853,HI,142.1,142.1,812,WSF1,1994,1,HI000425,EFS1,15003007302,21.34249,-157.96369,EDU1,1.5003E+14,4
278,Hahaione Elementary - Bldg I,595 PEPEEKEO ST,HONOLULU,96825,HI,1176350,1176350,6722,WSF1,1967,1,HI001651,EFS1,15003000106,21.296229,-157.710167,EDU1,1.5003E+14,3
279,Waianae Elementary - Bldg C,85-220 MCARTHUR ST,WAIANAE,96792,HI,659400,659400,3768,WSF1,1949,1,HI001634,EFS1,15003009701,21.445894,-158.184531,EDU1,1.5003E+14,4
280,Palolo Elementary - Bldg D,2106 10TH AVE,HONOLULU,96816,HI,2301600,2301600,13152,WSF1,1968,1,HI001449,EFS1,15003001100,21.299573,-157.792816,EDU1,1.5003E+14,4
281,Palolo Elementary - Bldg F,2106 10TH AVE,HONOLULU,96816,HI,1092000,1092000,6240,WSF1,1958,1,HI001450,EFS1,15003001100,21.299573,-157.792816,EDU1,1.5003E+14,4
282,Kaleiopuu Elementary - Bldg P7,94-665 KAAHOLO ST,WAIPAHU,96797,HI,142100,142100,812,WSF1,1994,1,HI001818,EFS1,15003008905,21.391223,-158.02813,EDU1,1.5003E+14,4
283,Kaleiopuu Elementary - Bldg P7,94-665 Kaaholo St,Waipahu,96797,HI,142.1,142.1,812,WSF1,1994,1,HI000604,EFS1,15003008925,21.39122,-158.02813,EDU1,1.5003E+14,4
284,Kamaile Elem PCCS - Bldg C,85-180 ALA AKAU ST,WAIANAE,96792,HI,1190875,1190875,6805,WSF1,1991,1,HI001833,EFS1,15003009701,21.457086,-158.195385,EDU1,1.5003E+14,3
285,Linapuni Elem - Bldg C,1434 LINAPUNI ST,HONOLULU,96819,HI,896000,896000,5120,WSF1,1965,1,HI001309,EFS1,15003006202,21.338775,-157.877534,EDU1,1.5003E+14,4
286,Ewa Elementary - Bldg K,91-1280 RENTON RD,EWA BEACH,96706,HI,1119125,1119125,6395,WSF1,1979,1,HI001099,EFS1,15003008605,21.3445,-158.034685,EDU1,1.5003E+14,3
287,Ewa Elementary - Bldg K,91-1280 Renton Rd,Ewa Beach,96706,HI,1119.13,1119.13,6395,WSF1,1979,1,HI000393,EFS1,15003008617,21.3445,-158.03469,EDU1,1.5003E+14,3
288,Makalapa Elementary - Bldg C,4435 SALT LAKE BLVD,HONOLULU,96819,HI,808150,808150,4618,WSF1,1971,1,HI001337,EFS1,15003007400,21.361227,-157.928547,EDU1,1.5003E+14,4
289,Wilson Elementary - Bldg B,4901 KILAUEA AVE,HONOLULU,96816,HI,1346800,1346800,7696,WSF1,1961,1,HI001899,EFS1,15003000901,21.282411,-157.784717,EDU1,1.5003E+14,4
290,Leihoku Elementary - Bldg C,86-285 LEIHOKU ST,WAIANAE,96792,HI,1177400,1177400,6728,WSF1,1987,1,HI001285,EFS1,15003009702,21.438689,-158.17437,EDU1,1.5003E+14,3
291,Leihoku Elementary - Bldg G,86-285 LEIHOKU ST,WAIANAE,96792,HI,277375,277375,1585,WSF1,1980,1,HI001288,EFS1,15003009702,21.438689,-158.17437,EDU1,1.5003E+14,3
292,Leihoku Elementary - Bldg C,86-285 Leihoku St,Waianae,96792,HI,1177.4,1177.4,6728,WSF1,1987,1,HI000703,EFS1,15003009703,21.43869,-158.17437,EDU1,1.5003E+14,3
293,Leihoku Elementary - Bldg G,86-285 Leihoku St,Waianae,96792,HI,277.38,277.38,1585,WSF1,1980,1,HI000706,EFS1,15003009703,21.43869,-158.17437,EDU1,1.5003E+14,3
294,Kipapa Elementary - Bldg C,95-440 KUAHELANI AVE,MILILANI,96789,HI,1333500,1333500,7620,WSF1,1961,1,HI001858,EFS1,15003008907,21.461394,-158.012643,EDU1,1.5003E+14,4
295,Kanoelani Elementary - Bldg D,94-1091 OLI LP,WAIPAHU,96797,HI,989625,989625,5655,WSF1,1987,1,HI001248,EFS1,15003008923,21.416094,-157.998502,EDU1,1.5003E+14,4
296,Honowai Elementary - Bldg F,94-660 HONOWAI ST,WAIPAHU,96797,HI,1503600,1503600,8592,WSF1,1968,1,HI001119,EFS1,15003008913,21.383732,-158.026214,EDU1,1.5003E+14,4
297,Honowai Elementary - Bldg K,94-660 HONOWAI ST,WAIPAHU,96797,HI,485100,485100,2772,WSF1,1968,1,HI001123,EFS1,15003008913,21.383732,-158.026214,EDU1,1.5003E+14,4
298,Helemano Elem - Bldg P12,1001 IHIIHI AVE,WAHIAWA,96786,HI,142100,142100,812,WSF1,1994,1,HI001659,EFS1,15003009100,21.514167,-158.023312,EDU1,1.5003E+14,3
299,Helemano Elem - Bldg P13,1001 IHIIHI AVE,WAHIAWA,96786,HI,142100,142100,812,WSF1,1994,1,HI001660,EFS1,15003009100,21.514167,-158.023312,EDU1,1.5003E+14,3
300,Helemano Elem - Bldg P14,1001 IHIIHI AVE,WAHIAWA,96786,HI,142100,142100,812,WSF1,1994,1,HI001661,EFS1,15003009100,21.514167,-158.023312,EDU1,1.5003E+14,3
301,Kainalu Elementary - Bldg P1,165 KAIHOLU ST,KAILUA,96734,HI,156800,156800,896,WSF1,1954,1,HI001789,EFS1,15003010904,21.412875,-157.748302,EDU1,1.5003E+14,4
302,Kainalu Elementary - Bldg P2,165 KAIHOLU ST,KAILUA,96734,HI,156800,156800,896,WSF1,1954,1,HI001790,EFS1,15003010904,21.412875,-157.748302,EDU1,1.5003E+14,4
303,Kainalu Elementary - Bldg P3,165 KAIHOLU ST,KAILUA,96734,HI,156800,156800,896,WSF1,1954,1,HI001791,EFS1,15003010904,21.412875,-157.748302,EDU1,1.5003E+14,4
304,Kainalu Elementary - Bldg P4,165 KAIHOLU ST,KAILUA,96734,HI,156800,156800,896,WSF1,1954,1,HI001793,EFS1,15003010904,21.412875,-157.748302,EDU1,1.5003E+14,4
305,Makakilo Elementary - Bldg K,92-675 ANIPEAHI ST,KAPOLEI,96707,HI,1078700,1078700,6164,WSF1,1969,1,HI001335,EFS1,15003008604,21.344312,-158.084779,EDU1,1.5003E+14,4
306,Makakilo Elementary - Bldg K,92-675 Anipeahi St,Kapolei,96707,HI,1078.7,1078.7,6164,WSF1,1969,1,HI000753,EFS1,15003008622,21.34431,-158.08478,EDU1,1.5003E+14,4
307,Barbers Point Elem - Bldg B,91-1001 BOXER ST BPNAS,BARBERS POINT,96862,HI,1610700,1610700,9204,WSF1,1954,1,HI001586,EFS1,15003008500,21.322413,-158.081912,EDU1,1.5003E+14,3
308,Koko Head Elementary - Bldg P3,189 LUNALILO HOME RD,HONOLULU,96825,HI,189175,189175,1081,WSF1,1967,1,HI001271,EFS1,15003000102,21.274647,-157.704478,EDU1,1.5003E+14,4
309,Koko Head Elementary - Bldg P4,189 LUNALILO HOME RD,HONOLULU,96825,HI,156800,156800,896,WSF1,1967,1,HI001272,EFS1,15003000102,21.274647,-157.704478,EDU1,1.5003E+14,4
310,Koko Head Elementary - Bldg P5,189 LUNALILO HOME RD,HONOLULU,96825,HI,156800,156800,896,WSF1,1967,1,HI001273,EFS1,15003000102,21.274647,-157.704478,EDU1,1.5003E+14,4
311,Koko Head Elementary - Bldg P6,189 LUNALILO HOME RD,HONOLULU,96825,HI,156800,156800,896,WSF1,1967,1,HI001274,EFS1,15003000102,21.274647,-157.704478,EDU1,1.5003E+14,4
312,Koko Head Elementary - Bldg P3,189 Lunalilo Home Rd,Honolulu,96825,HI,189.18,189.18,1081,WSF1,1967,1,HI000689,EFS1,15003000114,21.27465,-157.70448,EDU1,1.5003E+14,4
313,Koko Head Elementary - Bldg P4,189 Lunalilo Home Rd,Honolulu,96825,HI,156.8,156.8,896,WSF1,1967,1,HI000690,EFS1,15003000114,21.27465,-157.70448,EDU1,1.5003E+14,4
314,Koko Head Elementary - Bldg P5,189 Lunalilo Home Rd,Honolulu,96825,HI,156.8,156.8,896,WSF1,1967,1,HI000691,EFS1,15003000114,21.27465,-157.70448,EDU1,1.5003E+14,4
315,Koko Head Elementary - Bldg P6,189 Lunalilo Home Rd,Honolulu,96825,HI,156.8,156.8,896,WSF1,1967,1,HI000692,EFS1,15003000114,21.27465,-157.70448,EDU1,1.5003E+14,4
316,Mokapu Elementary - Bldg B,800 MOKAPU RD KMCAS,KANEOHE,96863,HI,911400,911400,5208,WSF1,1960,1,HI001411,EFS1,15003010802,21.444325,-157.749199,EDU1,1.5003E+14,4
317,Mokapu Elementary - Bldg C,800 MOKAPU RD KMCAS,KANEOHE,96863,HI,588000,588000,3360,WSF1,1960,1,HI001412,EFS1,15003010802,21.444325,-157.749199,EDU1,1.5003E+14,4
318,Mokapu Elementary - Bldg D,800 MOKAPU RD KMCAS,KANEOHE,96863,HI,588000,588000,3360,WSF1,1960,1,HI001413,EFS1,15003010802,21.444325,-157.749199,EDU1,1.5003E+14,4
319,Mokapu Elementary - Bldg E,800 MOKAPU RD KMCAS,KANEOHE,96863,HI,588000,588000,3360,WSF1,1960,1,HI001414,EFS1,15003010802,21.444325,-157.749199,EDU1,1.5003E+14,4
320,Mokapu Elementary - Bldg F,800 MOKAPU RD KMCAS,KANEOHE,96863,HI,541800,541800,3096,WSF1,1960,1,HI001415,EFS1,15003010802,21.444325,-157.749199,EDU1,1.5003E+14,4
321,Waiahole Elementary - Bldg P1,48-215 WAIAHOLE VALLEY RD,KANEOHE,96744,HI,156800,156800,896,WSF1,1966,1,HI001619,EFS1,15003010303,21.483287,-157.851652,EDU1,1.5003E+14,4
322,Waiahole Elementary - Bldg P2,48-215 WAIAHOLE VALLEY RD,KANEOHE,96744,HI,156800,156800,896,WSF1,1966,1,HI001620,EFS1,15003010303,21.483287,-157.851652,EDU1,1.5003E+14,4
323,Maunawili Elementary - Bldg F,1465 ULUPII ST,KAILUA,96734,HI,1458100,1458100,8332,WSF1,1958,1,HI001360,EFS1,15003011000,21.37698,-157.752132,EDU1,1.5003E+14,4
324,Manoa Elementary - Bldg E,3155 MANOA RD,HONOLULU,96822,HI,1220625,1220625,6975,WSF1,1952,1,HI001347,EFS1,15003003102,21.315937,-157.80819,EDU1,1.5003E+14,4
325,Nuuanu Elementary - Bldg J,3055 PUIWA LN,HONOLULU,96817,HI,1244775,1244775,7113,WSF1,1960,1,HI001441,EFS1,15003004500,21.335518,-157.835026,EDU1,1.5003E+14,4
326,Manana Elementary - Bldg O,1147 KUMANO ST,PEARL CITY,96782,HI,536550,536550,3066,WSF1,1974,1,HI001343,EFS1,15003008006,21.408352,-157.971365,EDU1,1.5003E+14,4
327,Manana Elementary - Bldg D,1147 KUMANO ST,PEARL CITY,96782,HI,233275,233275,1333,WSF1,1970,1,HI001342,EFS1,15003008006,21.408352,-157.971365,EDU1,1.5003E+14,4
328,Mililani Mauka Elem - Bldg TB1,95-1111 MAKAIKAI ST,MILILANI,96789,HI,142100,142100,812,WSF1,1997,1,HI001378,EFS1,15003008916,21.47097,-158.000902,EDU1,1.5003E+14,4
329,Mililani Mauka Elem - Bldg TB3,95-1111 MAKAIKAI ST,MILILANI,96789,HI,142100,142100,812,WSF1,1998,1,HI001379,EFS1,15003008916,21.47097,-158.000902,EDU1,1.5003E+14,4
330,Mililani Mauka Elem - Bldg TB4,95-1111 MAKAIKAI ST,MILILANI,96789,HI,142100,142100,812,WSF1,1998,1,HI001380,EFS1,15003008916,21.47097,-158.000902,EDU1,1.5003E+14,4
331,Mililani Mauka Elem - Bldg TB5,95-1111 MAKAIKAI ST,MILILANI,96789,HI,142100,142100,812,WSF1,2001,1,HI001381,EFS1,15003008916,21.47097,-158.000902,EDU1,1.5003E+14,4
332,Mililani Mauka Elem - Bldg TB6,95-1111 MAKAIKAI ST,MILILANI,96789,HI,142100,142100,812,WSF1,2001,1,HI001382,EFS1,15003008916,21.47097,-158.000902,EDU1,1.5003E+14,4
333,Mililani Mauka Elementary - Bldg TB1,95-1111 Makaikai St ,Mililani,96789,HI,142.1,142.1,812,WSF1,1997,1,HI000796,EFS1,15003008929,21.47097,-158.0009,EDU1,1.5003E+14,4
334,Mililani Mauka Elementary - Bldg TB3,95-1111 Makaikai St ,Mililani,96789,HI,142.1,142.1,812,WSF1,1998,1,HI000797,EFS1,15003008929,21.47097,-158.0009,EDU1,1.5003E+14,4
335,Mililani Mauka Elementary - Bldg TB4,95-1111 Makaikai St ,Mililani,96789,HI,142.1,142.1,812,WSF1,1998,1,HI000798,EFS1,15003008929,21.47097,-158.0009,EDU1,1.5003E+14,4
336,Mililani Mauka Elementary - Bldg TB5,95-1111 Makaikai St ,Mililani,96789,HI,142.1,142.1,812,WSF1,2001,1,HI000799,EFS1,15003008929,21.47097,-158.0009,EDU1,1.5003E+14,4
337,Mililani Mauka Elementary - Bldg TB6,95-1111 Makaikai St ,Mililani,96789,HI,142.1,142.1,812,WSF1,2001,1,HI000800,EFS1,15003008929,21.47097,-158.0009,EDU1,1.5003E+14,4
338,KE KULA O EHUNUIKAIMALINO,81-1045 KONAWAENA SCHOOL ROAD,KEALAKEKUA,nan,HI,2385.24,2385.24,0,WSF1,1982,1,HI001210,EFS1,15001021402,19.51161,-155.9215,EDU1,1.5001E+14,3
339,Ke Kula O Kamakau Lab PCS - Bldg D,45-35 KANEOHE BAY DR,KANEOHE,96744,HI,34300,34300,196,WSF1,1947,1,HI001842,EFS1,15003010701,21.410467,-157.779099,EDU1,1.5003E+14,3
340,Ke Kula O Kamakau Lab PCS - Bldg D,45-35 KANEOHE BAY DR,KANEOHE,96744,HI,34300,34300,196,WSF1,1949,1,HI001843,EFS1,15003010701,21.410467,-157.779099,EDU1,1.5003E+14,3
341,Keaau PS,16-200 Pili Mua Street,Keaau,96749,HI,241500,362250,950,WSF1,1974,1,HI000034,EFPS,15001021013,19.62115,-155.04012,GOV2,1.5001E+14,4
342,PAHOA ELEMENTARY SCHOOL,15-3030 PUNA ROAD,PAHOA,nan,HI,9890.77,9890.77,35,WSF1,1964,1,HI001733,EFS1,15001021106,19.51461,-154.90462,EDU1,1.5001E+14,4
343,INNOVATIONS PUBLIC CHARTER,76-147A ROYAL POINCIANA DR,KAILUA-KONA,nan,HI,1737.5,1737.5,0,WSF1,1951,1,HI001792,EFS1,15001021604,19.61354,-155.97978,EDU1,1.5001E+14,3
344,KAUNAKAKAI ELEMENTARY SCHOOL,30 AILOA STREET,KAUNAKAKAI,nan,HI,9553.55,9553.55,35,WSF1,1958,1,HI001533,EFS1,15009031700,21.08844,-157.01839,EDU1,1.5009E+14,3
345,KOHALA MIDDLE SCHOOL,53-4155 AKONI PULE HWY,KAPAAU,nan,HI,3569.52,3569.52,0,WSF1,1983,1,HI001779,EFS1,15001021800,20.2014,-155.7864,EDU1,1.5001E+14,4
346,KOHALA HIGH SCHOOL,54-3611 AKONI PULE HIGHWAY,KAPAAU,nan,HI,8804.93,8804.93,66,WSF1,1953,1,HI001766,EFS1,15001021800,20.2338,-155.803,EDU1,1.5001E+14,4
347,HOOKENA ELEMENTARY SCHOOL,86-4355 MAMALAHOA HIGHWAY,CAPTAIN COOK,nan,HI,5122.15,5122.15,0,WSF1,1962,1,HI001750,EFS1,15001021300,19.39619,-155.88105,EDU1,1.5001E+14,3
348,Honokaa Fire Station,45-3362 Mamane Street,Honokaa,96727,HI,655500,983250,2578,WSF1,1959,1,HI000056,EFFS,15001021902,20.07708,-155.46468,GOV2,1.5001E+14,3
349,KULA AUPUNI NI'IHAU A KA,8315 Kekaha Rd # P,KEKAHA,nan,HI,3686.28,3686.28,0,WSF1,1951,2,HI001782,EFS1,15007040900,21.97,-159.712,EDU1,1.5007E+14,3
350,KA 'UMEKE KA'EO PUBLIC CHARTER ,222 DESHA AVENUE,HILO,nan,HI,1918.2,1918.2,0,WSF1,1982,1,HI001204,EFS1,15001020600,19.73166,-155.04853,EDU1,1.5001E+14,3
351,HOLUALOA ELEMENTARY SCHOOL,76-5957 MAMALAHOA HIGHWAY,HOLUALOA,nan,HI,2923.72,2923.72,18,WSF1,1954,1,HI001744,EFS1,15001021502,19.62176,-155.95145,EDU1,1.5001E+14,3
352,WATERS OF LIFE PUBLIC CHARTER ,18-1355 Volcano Rd,MOUNTAIN VIEW,nan,HI,2852.28,2852.28,0,WSF1,1994,1,HI001773,EFS1,15001021010,19.549,-155.108,EDU1,1.5001E+14,3
353,KOLOA ELEMENTARY SCHOOL,3223 POIPU ROAD,KOLOA,nan,HI,2557.6,2557.6,0,WSF1,1983,1,HI001585,EFS1,15007040604,21.90216,-159.4692,EDU1,1.5007E+14,3
354,HAWAII ACADEMY OF ARTS & SCIENCES PCS,15-2874 PAHOA VILLAGE ROAD,PAHOA,nan,HI,2518.68,2518.68,0,WSF1,1977,1,HI001802,EFS1,15001021106,19.49737,-154.95244,EDU1,1.5001E+14,4
355,Pahoa Fire Station,15-2908 Pahoa Village Road,Pahoa,96778,HI,793500,1190250,3121,WSF1,1981,1,HI000069,EFFS,15001021106,19.49352,-154.94653,GOV2,1.5001E+14,4
356,HAAHEO ELEM SCHOOL,121 HAAHEO ROAD,HILO,nan,HI,2237.9,2237.9,0,WSF1,1957,1,HI001043,EFS1,15001020202,19.7483,-155.09537,EDU1,1.5001E+14,3
357,THE VOLCANO SCH OF ARTS & SCI,99-128 OLD VOLCANO ROAD,VOLCANO,nan,HI,1904.3,1904.3,0,WSF1,1972,2,HI001800,EFS1,15001021011,19.45611,-155.19366,EDU1,1.5001E+14,4
358,KUA 'O KA LA PUBLIC CHARTER SCHOOL,14-5322 Kalapana-Kapoho Rd,PAHOA,nan,HI,1668,1668,0,WSF1,1982,1,HI001212,EFS1,15001021101,19.4801,-154.9276,EDU1,1.5001E+14,4
359,KANUIKAPONO CHARTER SCHOOL,4333 Kukuihale Rd,AHAHOLA,nan,HI,1668,1668,0,WSF1,1977,1,HI001213,EFS1,15007940000,22.1452,-159.3155,EDU1,1.50079E+14,3
360,KE KULA NI'IHAU O KEKAHA LC,8135 KEKAHA ROAD,KEKAHA,nan,HI,1668,1668,0,WSF1,1972,1,HI001797,EFS1,15007040900,21.975,-159.71955,EDU1,1.5007E+14,3
361,MAUNALOA ELEMENTARY SCHOOL,128 MAUNALOA ROAD,MAUNALOA,nan,HI,1390,1390,0,WSF1,1957,1,HI001051,EFS1,15009031801,21.1424,-157.2239,EDU1,1.5009E+14,2
362,KE KULA 'O NAWAHIOKALANI 'OPU'U IKI L,16-120 OPUKAHAIA ST  SUITE 2,KEAAU,nan,HI,1390,1390,0,WSF1,1982,1,HI001206,EFS1,15001021013,19.60595,-155.03036,EDU1,1.5001E+14,4
363,KEANAE ELEMENTARY SCHOOL,4111 HANA HIGHWAY,KEANAE,nan,HI,1390,1390,0,WSF1,1971,1,HI001535,EFS1,15009030100,20.7537,-156.0788,EDU1,1.5009E+14,5
364,KILOHANA ELEMENTARY SCHOOL,HC 01  BOX 334,KAUNAKAKAI,nan,HI,1390,1390,0,WSF1,1971,1,HI001539,EFS1,15009031700,21.0946,-156.9337,EDU1,1.5009E+14,3
365,KE ANA LA'AHANA PUBLIC CHARTER ,162 Baker Ave,HILO,nan,HI,1167,1167,0,WSF1,1951,1,HI001794,EFS1,15001020600,19.73476,-155.03677,EDU1,1.5001E+14,4
366,KAHUKU EOC,56-460 KAMEHAMEHA HWY,KAHUKU,96731,HI,1203500,1805250,4734,WSF1,1976,1,HI000008,EFEO,15003010100,21.372425,-157.744699,GOV2,1.5003E+14,4
367,KAILUA EOC,42-377 KALANIANAOLE HWY,KAILUA,96734,HI,608000,912000,2392,WSF1,1990,1,HI000007,EFEO,15003011103,21.264919,-157.80263,GOV2,1.5003E+14,3
368,Kailua-Kona FS,74-5537 Palani Road,Kailua-Kona,96740,HI,200100,300150,787,WSF1,1983,1,HI000072,EFFS,15001021601,19.64758,-155.99232,GOV2,1.5001E+14,3
369,Hoolehua Fire Station,2190 Farrington Ave.,Hoolehua,96729,HI,120000,180000,472,WSF1,1992,1,HI000080,EFFS,15009031801,21.16355,-157.050194,GOV2,1.5009E+14,3
370,Kawailani Fire Station,411 W. Kawailani Street,Hilo,96720,HI,414000,621000,1628,WSF1,1998,1,HI000087,EFFS,15001020701,19.68385,-155.07968,GOV2,1.5001E+14,3
371,Laupahoehoe PS,36-2285 Old Mamalahoa Highway,Laupahoehoe,96764,HI,690000,1035000,2714,WSF1,1966,1,HI000044,EFPS,15001022102,19.98354,-155.23226,GOV2,1.5001E+14,3
372,Laupahoehoe FS,36-2285 Old Mamalahoa Highway,Laupahoehoe,96764,HI,552000,828000,2171,WSF1,1999,1,HI000089,EFFS,15001022102,19.98354,-155.23226,GOV2,1.5001E+14,3
373,Laupahoehoe VFS,36-2285 Old Mamalahoa Highway,Laupahoehoe,96764,HI,155250,232875,611,WSF1,1990,1,HI000003,EFFS,15001022102,19.98354,-155.23226,GOV2,1.5001E+14,3
374,North Kohala FS,Hawi-Niulii Road at Hospital Road,Kapaau,96755,HI,483000,724500,1900,WSF1,1988,1,HI000076,EFFS,15001021800,20.22927,-155.79858,GOV2,1.5001E+14,4
375,North Kohala FS,Hawi-Niulii Road at Hospital Road,Kapaau,96755,HI,172500,258750,679,WSF1,1980,1,HI000067,EFFS,15001021800,20.2294,-155.79865,GOV2,1.5001E+14,4
376,Pahoa PS,15-2879 Pahoa Village Road,Pahoa,96778,HI,379500,569250,1493,WSF1,1977,1,HI000035,EFPS,15001021106,19.49463,-154.94788,GOV2,1.5001E+14,4
377,Paradise Park FS,15-1575 Paradise Drive,Keaau,96749,HI,345000,517500,1357,WSF1,1990,1,HI000004,EFFS,15001021005,19.57428,-154.97417,GOV2,1.5001E+14,4
378,Paradise Park FS,15-1575 Paradise Drive,Keaau,96749,HI,293250,439875,1153,WSF1,1990,1,HI000005,EFFS,15001021005,19.57428,-154.97425,GOV2,1.5001E+14,4
379,Hawaiian Acres VFS,16-1325 Moho Road,Kurtistown,96760,HI,276000,414000,1086,WSF1,1994,1,HI000082,EFFS,15001021010,19.55645,-155.05,GOV2,1.5001E+14,3
380,Queens Medical Center,1236 LAUHALA ST,HONOLULU,96813,HI,16520000,24780000,54639,CERBH,1980,1,HI000199,EFHM,15003005700,21.307815,-157.853944,COM6,1.5003E+14,4
381,Queens Medical Center,1236 Lauhala St,Honolulu,96813,HI,16800000,25200000,55565,CERBH,nan,1,HI000046,EFHL,15003004100,21.30782,-157.85394,COM6,1.5003E+14,4
382,St. Francis Medical Center,2230 LILIHA ST,HONOLULU,96817,HI,16520000,24780000,54639,CERBH,1980,1,HI000205,EFHM,15003005700,21.329542,-157.852662,COM6,1.5003E+14,4
383,St Francis MC,2230 Liliha St,Honolulu,96817,HI,16800000,25200000,55565,CERBH,nan,1,HI000044,EFHL,15003004700,21.32954,-157.85266,COM6,1.5003E+14,4
384,Tripler Army Medical Center,1250 ALA AOLANI,HONOLULU,96819,HI,16520000,24780000,54639,CERBH,1945,1,HI000227,EFHM,15003005700,21.359535,-157.884171,COM6,1.5003E+14,5
385,Tripler Army MC,1250 Ala Aolani,Honolulu,96819,HI,16800000,25200000,55565,CERBH,1945,1,HI000031,EFHL,15003006701,21.35954,-157.88417,COM6,1.5003E+14,5
386,Kapiolani Medical Center,1637 BINGHAM ST,HONOLULU,96826,HI,4150000,6225000,13726,CERBH,1976,12,HI000147,EFHM,15003005700,21.299408,-157.832805,COM6,1.5003E+14,4
387,Kapiolani Medical Center,1637 BINGHAM ST,HONOLULU,96826,HI,4150000,6225000,13726,CERBH,1977,7,HI000151,EFHM,15003005700,21.299408,-157.832805,COM6,1.5003E+14,4
388,Kapiolani Medical Center,1637 Bingham St,Honolulu,96826,HI,16800000,25200000,55565,CERBH,1976,12,HI000056,EFHL,15003002600,21.29941,-157.83281,COM6,1.5003E+14,4
389,Kapiolani Medical Center,1637 Bingham St,Honolulu,96826,HI,16800000,25200000,55565,CERBH,1977,7,HI000060,EFHL,15003002600,21.29941,-157.83281,COM6,1.5003E+14,4
390,Kuakini Medical Center,347 N KUAKINI ST,HONOLULU,96817,HI,4150000,6225000,13726,CERBH,1968,6,HI000157,EFHM,15003005700,21.32171,-157.858251,COM6,1.5003E+14,4
391,Kuakini Medical Center,347 N KUAKINI ST,HONOLULU,96817,HI,4150000,6225000,13726,CERBH,1978,9,HI000158,EFHM,15003005700,21.32171,-157.858251,COM6,1.5003E+14,4
392,Kuakini Medical Center,347 N KUAKINI ST,HONOLULU,96817,HI,4150000,6225000,13726,CERBH,1979,10,HI000159,EFHM,15003005700,21.32171,-157.858251,COM6,1.5003E+14,4
393,Kuakini MC,347 N Kuakini St,Honolulu,96817,HI,8400000,12600000,27782,CERBH,1978,9,HI000037,EFHM,15003005000,21.32171,-157.85825,COM6,1.5003E+14,4
394,Kuakini MC,347 N Kuakini St,Honolulu,96817,HI,8400000,12600000,27782,CERBH,1979,10,HI000038,EFHM,15003005000,21.32171,-157.85825,COM6,1.5003E+14,4
395,Kuakini MC,347 N Kuakini St,Honolulu,96817,HI,8400000,12600000,27782,CERBH,1968,6,HI000036,EFHM,15003005000,21.32171,-157.85825,COM6,1.5003E+14,4
396,Straub Clinic & Hospital,888 S KING ST,HONOLULU,96813,HI,4150000,6225000,13726,CERBH,1970,7,HI000210,EFHM,15003005700,21.302669,-157.850598,COM6,1.5003E+14,4
397,Straub Clinic & Hospital,888 S KING ST,HONOLULU,96813,HI,4150000,6225000,13726,CERBH,1962,8,HI000212,EFHM,15003005700,21.302669,-157.850598,COM6,1.5003E+14,4
398,Straub Clinic & Hospital,888 S King St,Honolulu,96813,HI,8400000,12600000,27782,CERBH,1962,8,HI000051,EFHM,15003004100,21.30267,-157.8506,COM6,1.5003E+14,4
399,Straub Clinic & Hospital,888 S King St,Honolulu,96813,HI,8400000,12600000,27782,CERBH,1970,7,HI000049,EFHM,15003004100,21.30267,-157.8506,COM6,1.5003E+14,4
400,Hawaii Pacific University,1164 Bishop St,Honolulu,96813,HI,144750312,217125468,747600,CERBH,1990,20,HI001962,EFS2,15003004000,21.3103,-157.8607,EDU2,1.5003E+14,4
401,Pacific Ocean Sci & Tech (POST),1686 East West Road,HONOLULU,96848,HI,112500000,168750000,225000,CERBH,1995,9,HI001940,EFS2,15003002701,21.297517,-157.816302,EDU2,1.5003E+14,4
402,Biomedical Sciences Building,1960 East West Road,HONOLULU,96848,HI,92296000,138444000,184592,CERBH,1972,8,HI001947,EFS2,15003002701,21.303433,-157.81466,EDU2,1.5003E+14,4
403,Wahiawa General Hospital,128 LEHUA ST,WAHIAWA,96786,HI,16520000,24780000,54639,MERBL,1980,1,HI000230,EFHM,15003005700,21.498846,-158.02643,COM6,1.5003E+14,4
404,Wahiawa General Hospital ,128 Lehua St,Wahiawa,96786,HI,16800000,25200000,55565,MERBL,nan,1,HI000081,EFHL,15003009300,21.49885,-158.02643,COM6,1.5003E+14,4
405,Kahi Mohala,2301 FORT WEAVER RD,EWA BEACH,96706,HI,4150000,6225000,13726,MERBL,1983,1,HI000122,EFHM,15003005700,21.37647,-158.037904,COM6,1.5003E+14,2
406,Kahi Mohala,2301 FORT WEAVER RD,EWA BEACH,96706,HI,4150000,6225000,13726,MERBL,1983,1,HI000123,EFHM,15003005700,21.37647,-158.037904,COM6,1.5003E+14,2
407,Kahi Mohala,2301 FORT WEAVER RD,EWA BEACH,96706,HI,4150000,6225000,13726,MERBL,1983,1,HI000124,EFHM,15003005700,21.37647,-158.037904,COM6,1.5003E+14,2
408,Kahi Mohala,2301 FORT WEAVER RD,EWA BEACH,96706,HI,4150000,6225000,13726,MERBL,1984,1,HI000125,EFHM,15003005700,21.37647,-158.037904,COM6,1.5003E+14,2
409,Kahi Mohala,2301 FORT WEAVER RD,EWA BEACH,96706,HI,4150000,6225000,13726,MERBL,1983,1,HI000126,EFHM,15003005700,21.37647,-158.037904,COM6,1.5003E+14,2
410,Kahi Mohala,2301 Fort Weaver Rd,Ewa Beach,96706,HI,8400000,12600000,27782,MERBL,1983,1,HI000085,EFHM,15003008614,21.37647,-158.0379,COM6,1.5003E+14,2
411,Kahi Mohala,2301 Fort Weaver Rd,Ewa Beach,96706,HI,8400000,12600000,27782,MERBL,1983,1,HI000086,EFHM,15003008614,21.37647,-158.0379,COM6,1.5003E+14,2
412,Kahi Mohala,2301 Fort Weaver Rd,Ewa Beach,96706,HI,8400000,12600000,27782,MERBL,1983,1,HI000087,EFHM,15003008614,21.37647,-158.0379,COM6,1.5003E+14,2
413,Kahi Mohala,2301 Fort Weaver Rd,Ewa Beach,96706,HI,8400000,12600000,27782,MERBL,1984,1,HI000088,EFHM,15003008614,21.37647,-158.0379,COM6,1.5003E+14,2
414,Kahi Mohala,2301 Fort Weaver Rd,Ewa Beach,96706,HI,8400000,12600000,27782,MERBL,1983,1,HI000089,EFHM,15003008614,21.37647,-158.0379,COM6,1.5003E+14,2
415,Kahuku Hospital,56-117 PUALALEA ST,KAHUKU,96731,HI,4150000,6225000,13726,MERBL,1939,1,HI000127,EFHM,15003005700,21.676543,-157.954501,COM6,1.5003E+14,3
416,Kahuku Hospital,56-117 PUALALEA ST,KAHUKU,96731,HI,4150000,6225000,13726,MERBL,1917,1,HI000128,EFHM,15003005700,21.676543,-157.954501,COM6,1.5003E+14,3
417,Kahuku Hospital,56-117 PUALALEA ST,KAHUKU,96731,HI,4150000,6225000,13726,MERBL,1949,2,HI000129,EFHM,15003005700,21.676543,-157.954501,COM6,1.5003E+14,3
418,Kahuku Hospital,56-117 PUALALEA ST,KAHUKU,96731,HI,4150000,6225000,13726,MERBL,1966,1,HI000130,EFHM,15003005700,21.676543,-157.954501,COM6,1.5003E+14,3
419,Kahuku Hospital,56-117 PUALALEA ST,KAHUKU,96731,HI,4150000,6225000,13726,MERBL,1959,1,HI000131,EFHM,15003005700,21.676543,-157.954501,COM6,1.5003E+14,3
420,Kahuku Hospital,56-117 PUALALEA ST,KAHUKU,96731,HI,4150000,6225000,13726,MERBL,1981,1,HI000132,EFHM,15003005700,21.676543,-157.954501,COM6,1.5003E+14,3
421,Kahuku Hospital,56-117 Pualalea St,Kahuku,96731,HI,4200000,6300000,13891,MERBL,1939,1,HI000075,EFHS,15003010100,21.67654,-157.9545,COM6,1.5003E+14,3
422,Kahuku Hospital,56-117 Pualalea St,Kahuku,96731,HI,4200000,6300000,13891,MERBL,1917,1,HI000076,EFHS,15003010100,21.67654,-157.9545,COM6,1.5003E+14,3
423,Kahuku Hospital,56-117 Pualalea St,Kahuku,96731,HI,4200000,6300000,13891,MERBL,1949,2,HI000077,EFHS,15003010100,21.67654,-157.9545,COM6,1.5003E+14,3
424,Kahuku Hospital,56-117 Pualalea St,Kahuku,96731,HI,4200000,6300000,13891,MERBL,1966,1,HI000078,EFHS,15003010100,21.67654,-157.9545,COM6,1.5003E+14,3
425,Kahuku Hospital,56-117 Pualalea St,Kahuku,96731,HI,4200000,6300000,13891,MERBL,1959,1,HI000079,EFHS,15003010100,21.67654,-157.9545,COM6,1.5003E+14,3
426,Kahuku Hospital,56-117 Pualalea St,Kahuku,96731,HI,4200000,6300000,13891,MERBL,1981,1,HI000080,EFHS,15003010100,21.67654,-157.9545,COM6,1.5003E+14,3
427,Kahuku High & Interm - Bldg W,56-490 KAM HWY,KAHUKU,96731,HI,7112400,7112400,23708,MERBL,1979,3,HI001158,EFS1,15003010100,21.675327,-157.947965,EDU1,1.5003E+14,4
428,Kahuku High & Interm - Bldg V,56-490 KAM HWY,KAHUKU,96731,HI,5612400,5612400,18708,MERBL,1978,1,HI001156,EFS1,15003010100,21.675327,-157.947965,EDU1,1.5003E+14,4
429,Kahuku High & Interm - Bldg Y,56-490 KAM HWY,KAHUKU,96731,HI,4738200,4738200,15794,MERBL,1987,1,HI001162,EFS1,15003010100,21.675327,-157.947965,EDU1,1.5003E+14,4
430,Kahuku High & Interm - Bldg Z,56-490 KAM HWY,KAHUKU,96731,HI,3264000,3264000,10880,MERBL,1985,1,HI001164,EFS1,15003010100,21.675327,-157.947965,EDU1,1.5003E+14,4
431,Kahuku High & Interm - Bldg G,56-490 KAM HWY,KAHUKU,96731,HI,2786400,2786400,9288,MERBL,1968,1,HI001151,EFS1,15003010100,21.675327,-157.947965,EDU1,1.5003E+14,4
432,Kahuku High & Interm - Bldg R,56-490 KAM HWY,KAHUKU,96731,HI,2121600,2121600,7072,MERBL,1965,1,HI001154,EFS1,15003010100,21.675327,-157.947965,EDU1,1.5003E+14,4
433,Kahuku High & Interm - Bldg D,56-490 KAM HWY,KAHUKU,96731,HI,1937700,1937700,6459,MERBL,1962,1,HI001150,EFS1,15003010100,21.675327,-157.947965,EDU1,1.5003E+14,4
434,KAHUKU STATION,470 KAM HWY,KAHUKU,96731,HI,1203500,1805250,4734,MERBL,1800,1,HI000063,EFPS,15003010100,21.675375,-157.945885,GOV2,1.5003E+14,4
435,Straub Kailua Family Health Center,641 KAILUA RD,KAILUA,96734,HI,4150000,6225000,13726,MERBL,1960,2,HI000215,EFHM,15003005700,21.389571,-157.740046,COM6,1.5003E+14,4
436,Straub Kailua FHC,641 Kailua Rd,Kailua,96734,HI,8400000,12600000,27782,MERBL,1960,2,HI000069,EFHM,15003011105,21.38957,-157.74005,COM6,1.5003E+14,4
437,Straub Mililani Family Health,95-1249 MEHEULA PKWY,MILILANI,96789,HI,4150000,6225000,13726,MERBL,1987,1,HI000219,EFHM,15003005700,21.454907,-158.006905,COM6,1.5003E+14,4
438,Straub Mililani Family Health,95-1249 MEHEULA PKWY,MILILANI,96789,HI,4150000,6225000,13726,MERBL,1987,2,HI000220,EFHM,15003005700,21.454907,-158.006905,COM6,1.5003E+14,4
439,Straub Mililani Family Health,95-1249 MEHEULA PKWY,MILILANI,96789,HI,4150000,6225000,13726,MERBL,1987,1,HI000221,EFHM,15003005700,21.454907,-158.006905,COM6,1.5003E+14,4
440,Straub Mililani Family Health,95-1249 MEHEULA PKWY,MILILANI,96789,HI,4150000,6225000,13726,MERBL,1987,1,HI000222,EFHM,15003005700,21.454907,-158.006905,COM6,1.5003E+14,4
441,Straub Mililani Family Health,95-1249 MEHEULA PKWY,MILILANI,96789,HI,4150000,6225000,13726,MERBL,1988,1,HI000223,EFHM,15003005700,21.454907,-158.006905,COM6,1.5003E+14,4
442,Straub Mililani Family Health,95-1249 MEHEULA PKWY,MILILANI,96789,HI,4150000,6225000,13726,MERBL,1993,1,HI000224,EFHM,15003005700,21.454907,-158.006905,COM6,1.5003E+14,4
443,Straub Mililani FH,95-1249 Meheula Pkwy,Mililani,96789,HI,8400000,12600000,27782,MERBL,1987,1,HI000099,EFHM,15003008917,21.45491,-158.00691,COM6,1.5003E+14,4
444,Straub Mililani FH,95-1249 Meheula Pkwy,Mililani,96789,HI,8400000,12600000,27782,MERBL,1987,2,HI000100,EFHM,15003008917,21.45491,-158.00691,COM6,1.5003E+14,4
445,Straub Mililani FH,95-1249 Meheula Pkwy,Mililani,96789,HI,8400000,12600000,27782,MERBL,1987,1,HI000101,EFHM,15003008917,21.45491,-158.00691,COM6,1.5003E+14,4
446,Straub Mililani FH,95-1249 Meheula Pkwy,Mililani,96789,HI,8400000,12600000,27782,MERBL,1987,1,HI000102,EFHM,15003008917,21.45491,-158.00691,COM6,1.5003E+14,4
447,Straub Mililani FH,95-1249 Meheula Pkwy,Mililani,96789,HI,8400000,12600000,27782,MERBL,1988,1,HI000103,EFHM,15003008917,21.45491,-158.00691,COM6,1.5003E+14,4
448,Straub Mililani FH,95-1249 Meheula Pkwy,Mililani,96789,HI,8400000,12600000,27782,MERBL,1993,1,HI000104,EFHM,15003008917,21.45491,-158.00691,COM6,1.5003E+14,4
449,Waipahu PS,144 Farrington Hwy,Waipahu,96797,HI,99877,149815.5,393,MERBL,1969,1,HI000031,EFPS,15003008914,21.37854,-158.02244,GOV2,1.5003E+14,4
450,Straub Financial District,222 QUEEN ST,HONOLULU,96813,HI,4150000,6225000,13726,MERBL,1950,1,HI000213,EFHM,15003005700,21.306816,-157.861789,COM6,1.5003E+14,4
451,Straub Financial District,222 Queen St,Honolulu,96813,HI,8400000,12600000,27782,MERBL,1950,1,HI000045,EFHM,15003004000,21.30682,-157.86179,COM6,1.5003E+14,4
452,Straub Kaneohe Family Health,46-56 KAMEHAMEHA HWY,KANEOHE,96744,HI,4150000,6225000,13726,MERBL,1982,2,HI000216,EFHM,15003005700,21.420817,-157.805694,COM6,1.5003E+14,4
453,Straub Kaneohe Family Health,46-56 KAMEHAMEHA HWY,KANEOHE,96744,HI,4150000,6225000,13726,MERBL,1982,1,HI000217,EFHM,15003005700,21.420817,-157.805694,COM6,1.5003E+14,4
454,Straub Kaneohe FH,46-56 Kamehameha Hwy,Kaneohe,96744,HI,8400000,12600000,27782,MERBL,1982,2,HI000073,EFHM,15003010507,21.42082,-157.80569,COM6,1.5003E+14,4
455,Straub Kaneohe FH,46-56 Kamehameha Hwy,Kaneohe,96744,HI,8400000,12600000,27782,MERBL,1982,1,HI000074,EFHM,15003010507,21.42082,-157.80569,COM6,1.5003E+14,4
456,Straub Pearl Ridge,98-151 PALI MOMI ST,AIEA,96701,HI,4150000,6225000,13726,MERBL,1977,2,HI000225,EFHM,15003005700,21.381801,-157.939798,COM6,1.5003E+14,4
457,Straub Pearl Ridge,98-151 PALI MOMI ST,AIEA,96701,HI,4150000,6225000,13726,MERBL,1977,1,HI000226,EFHM,15003005700,21.381801,-157.939798,COM6,1.5003E+14,4
458,Straub Pearl Ridge,98-151 Pali Momi St,Aiea,96701,HI,8400000,12600000,27782,MERBL,1977,2,HI000106,EFHM,15003007808,21.3818,-157.9398,COM6,1.5003E+14,4
459,Straub Pearl Ridge,98-151 Pali Momi St,Aiea,96701,HI,8400000,12600000,27782,MERBL,1977,1,HI000107,EFHM,15003007808,21.3818,-157.9398,COM6,1.5003E+14,4
460,Kaiser High - Bldg H,511 LUNALILO HOME RD,HONOLULU,96825,HI,21647100,21647100,72157,MERBL,1973,3,HI001205,EFS1,15003000105,21.284778,-157.695995,EDU1,1.5003E+14,3
461,Kaiser High - Bldg L,511 LUNALILO HOME RD,HONOLULU,96825,HI,6623700,6623700,22079,MERBL,1974,1,HI001208,EFS1,15003000105,21.284778,-157.695995,EDU1,1.5003E+14,3
462,Kaiser High - Bldg A,511 LUNALILO HOME RD,HONOLULU,96825,HI,6309000,6309000,21030,MERBL,1971,3,HI001795,EFS1,15003000105,21.284778,-157.695995,EDU1,1.5003E+14,3
463,Kaiser High - Bldg C,511 LUNALILO HOME RD,HONOLULU,96825,HI,3753900,3753900,12513,MERBL,1972,3,HI001799,EFS1,15003000105,21.284778,-157.695995,EDU1,1.5003E+14,3
464,Kaiser High - Bldg K,511 LUNALILO HOME RD,HONOLULU,96825,HI,3560700,3560700,11869,MERBL,1974,2,HI001207,EFS1,15003000105,21.284778,-157.695995,EDU1,1.5003E+14,3
465,Kaiser High - Bldg G,511 LUNALILO HOME RD,HONOLULU,96825,HI,3260700,3260700,10869,MERBL,1973,2,HI001803,EFS1,15003000105,21.284778,-157.695995,EDU1,1.5003E+14,3
466,Kaiser High - Bldg E,511 LUNALILO HOME RD,HONOLULU,96825,HI,1662300,1662300,5541,MERBL,1972,3,HI001801,EFS1,15003000105,21.284778,-157.695995,EDU1,1.5003E+14,3
467,Kaiser High - Bldg H,511 Lunalilo Home Rd,Honolulu,96825,HI,21647.1,21647.1,72157,MERBL,1973,3,HI000564,EFS1,15003000112,21.28478,-157.696,EDU1,1.5003E+14,3
468,Kaiser High - Bldg L,511 Lunalilo Home Rd,Honolulu,96825,HI,6623.7,6623.7,22079,MERBL,1974,1,HI000566,EFS1,15003000112,21.28478,-157.696,EDU1,1.5003E+14,3
469,Kaiser High - Bldg A,511 Lunalilo Home Rd,Honolulu,96825,HI,6309,6309,21030,MERBL,1971,3,HI000559,EFS1,15003000112,21.28478,-157.696,EDU1,1.5003E+14,3
470,Kaiser High - Bldg C,511 Lunalilo Home Rd,Honolulu,96825,HI,3753.9,3753.9,12513,MERBL,1972,3,HI000561,EFS1,15003000112,21.28478,-157.696,EDU1,1.5003E+14,3
471,Kaiser High - Bldg K,511 Lunalilo Home Rd,Honolulu,96825,HI,3560.7,3560.7,11869,MERBL,1974,2,HI000565,EFS1,15003000112,21.28478,-157.696,EDU1,1.5003E+14,3
472,Kaiser High - Bldg G,511 Lunalilo Home Rd,Honolulu,96825,HI,3260.7,3260.7,10869,MERBL,1973,2,HI000563,EFS1,15003000112,21.28478,-157.696,EDU1,1.5003E+14,3
473,Kaiser High - Bldg E,511 Lunalilo Home Rd,Honolulu,96825,HI,1662.3,1662.3,5541,MERBL,1972,3,HI000562,EFS1,15003000112,21.28478,-157.696,EDU1,1.5003E+14,3
474,Roosevelt High - Bldg G,1120 NEHOA ST,HONOLULU,96822,HI,5560200,5560200,18534,MERBL,1965,2,HI001522,EFS1,15003003300,21.310553,-157.837321,EDU1,1.5003E+14,4
475,Roosevelt High - Bldg J,1120 NEHOA ST,HONOLULU,96822,HI,3777600,3777600,12592,MERBL,1935,1,HI001553,EFS1,15003003300,21.310553,-157.837321,EDU1,1.5003E+14,4
476,Roosevelt High - Bldg C,1120 NEHOA ST,HONOLULU,96822,HI,2957400,2957400,9858,MERBL,1959,2,HI001519,EFS1,15003003300,21.310553,-157.837321,EDU1,1.5003E+14,4
477,Roosevelt High - Bldg F,1120 NEHOA ST,HONOLULU,96822,HI,2202300,2202300,7341,MERBL,1963,1,HI001521,EFS1,15003003300,21.310553,-157.837321,EDU1,1.5003E+14,4
478,Roosevelt High - Bldg N,1120 NEHOA ST,HONOLULU,96822,HI,1858800,1858800,6196,MERBL,1970,2,HI001554,EFS1,15003003300,21.310553,-157.837321,EDU1,1.5003E+14,4
479,Roosevelt High - Bldg D,1120 NEHOA ST,HONOLULU,96822,HI,1101900,1101900,3673,MERBL,1956,1,HI001520,EFS1,15003003300,21.310553,-157.837321,EDU1,1.5003E+14,4
480,Campbell High - Bldg D,91-950 NORTH RD EWA BCH,EWA BEACH,96706,HI,11876400,11876400,39588,MERBL,1975,3,HI001595,EFS1,15003008302,21.315775,-158.008347,EDU1,1.5003E+14,4
481,Campbell High - Bldg H,91-950 NORTH RD EWA BCH,EWA BEACH,96706,HI,7053300,7053300,23511,MERBL,1976,1,HI001599,EFS1,15003008302,21.315775,-158.008347,EDU1,1.5003E+14,4
482,Campbell High - Bldg G,91-950 NORTH RD EWA BCH,EWA BEACH,96706,HI,6901500,6901500,23005,MERBL,1968,2,HI001598,EFS1,15003008302,21.315775,-158.008347,EDU1,1.5003E+14,4
483,Campbell High - Bldg O,91-950 NORTH RD EWA BCH,EWA BEACH,96706,HI,6375900,6375900,21253,MERBL,1963,2,HI001604,EFS1,15003008302,21.315775,-158.008347,EDU1,1.5003E+14,4
484,Kaimiloa Elem - Bldg F,91-1028 KAUNOLU ST,EWA BEACH,96706,HI,5339700,5339700,17799,MERBL,1975,2,HI001175,EFS1,15003008302,21.319207,-158.009188,EDU1,1.5003E+14,4
485,Campbell High - Bldg K,91-950 NORTH RD EWA BCH,EWA BEACH,96706,HI,5042400,5042400,16808,MERBL,1968,1,HI001601,EFS1,15003008302,21.315775,-158.008347,EDU1,1.5003E+14,4
486,Campbell High - Bldg J,91-950 NORTH RD EWA BCH,EWA BEACH,96706,HI,4704900,4704900,15683,MERBL,1974,1,HI001600,EFS1,15003008302,21.315775,-158.008347,EDU1,1.5003E+14,4
487,Campbell High - Bldg I,91-950 NORTH RD EWA BCH,EWA BEACH,96706,HI,4704900,4704900,15683,MERBL,1974,1,HI001605,EFS1,15003008302,21.315775,-158.008347,EDU1,1.5003E+14,4
488,Ilima Intermediate - Bldg C,91-950 NORTH RD EWA BCH,EWA BEACH,96706,HI,4520400,4520400,15068,MERBL,1962,2,HI001130,EFS1,15003008302,21.317162,-158.010902,EDU1,1.5003E+14,4
489,Ilima Intermediate - Bldg E,91-950 NORTH RD EWA BCH,EWA BEACH,96706,HI,3900600,3900600,13002,MERBL,1962,2,HI001132,EFS1,15003008302,21.317162,-158.010902,EDU1,1.5003E+14,4
490,Kaimiloa Elem - Bldg E,91-1028 KAUNOLU ST,EWA BEACH,96706,HI,3869400,3869400,12898,MERBL,1990,2,HI001173,EFS1,15003008302,21.319207,-158.009188,EDU1,1.5003E+14,4
491,Ilima Intermediate - Bldg I,91-950 NORTH RD EWA BCH,EWA BEACH,96706,HI,3635400,3635400,12118,MERBL,1980,1,HI001133,EFS1,15003008302,21.317162,-158.010902,EDU1,1.5003E+14,4
492,Pohakea Elementary - Bldg A,91-950 NORTH RD EWA BCH,EWA BEACH,96706,HI,3590700,3590700,11969,MERBL,1965,2,HI001495,EFS1,15003008302,21.313723,-158.009911,EDU1,1.5003E+14,4
493,Pohakea Elementary - Bldg B,91-950 NORTH RD EWA BCH,EWA BEACH,96706,HI,3373500,3373500,11245,MERBL,1965,2,HI001496,EFS1,15003008302,21.313723,-158.009911,EDU1,1.5003E+14,4
494,Pohakea Elementary - Bldg C,91-950 NORTH RD EWA BCH,EWA BEACH,96706,HI,3304200,3304200,11014,MERBL,1965,2,HI001497,EFS1,15003008302,21.313723,-158.009911,EDU1,1.5003E+14,4
495,Ilima Intermediate - Bldg B,91-950 NORTH RD EWA BCH,EWA BEACH,96706,HI,3279900,3279900,10933,MERBL,1962,2,HI001129,EFS1,15003008302,21.317162,-158.010902,EDU1,1.5003E+14,4
496,Ilima Intermediate - Bldg A,91-950 NORTH RD EWA BCH,EWA BEACH,96706,HI,3160200,3160200,10534,MERBL,1962,2,HI001128,EFS1,15003008302,21.317162,-158.010902,EDU1,1.5003E+14,4
497,Campbell High - Bldg L,91-950 NORTH RD EWA BCH,EWA BEACH,96706,HI,1940700,1940700,6469,MERBL,1972,1,HI001602,EFS1,15003008302,21.315775,-158.008347,EDU1,1.5003E+14,4
498,Ilima Intermediate - Bldg J,91-950 NORTH RD EWA BCH,EWA BEACH,96706,HI,1575300,1575300,5251,MERBL,1963,1,HI001134,EFS1,15003008302,21.317162,-158.010902,EDU1,1.5003E+14,4
499,Ilima Intermediate - Bldg D,91-950 NORTH RD EWA BCH,EWA BEACH,96706,HI,1301100,1301100,4337,MERBL,1962,2,HI001131,EFS1,15003008302,21.317162,-158.010902,EDU1,1.5003E+14,4
500,Campbell High - Bldg F,91-950 NORTH RD EWA BCH,EWA BEACH,96706,HI,1282500,1282500,4275,MERBL,1973,1,HI001597,EFS1,15003008302,21.315775,-158.008347,EDU1,1.5003E+14,4
501,Farrington High - Bldg J,1101 KALIHI ST,HONOLULU,96817,HI,7407900,7407900,24693,MERBL,1965,3,HI001105,EFS1,15003005600,21.330721,-157.87242,EDU1,1.5003E+14,4
502,Farrington High - Bldg Q,1101 KALIHI ST,HONOLULU,96817,HI,6905100,6905100,23017,MERBL,1965,1,HI001107,EFS1,15003005600,21.330721,-157.87242,EDU1,1.5003E+14,4
503,Farrington High - Bldg I,1101 KALIHI ST,HONOLULU,96817,HI,6345900,6345900,21153,MERBL,1964,3,HI001104,EFS1,15003005600,21.330721,-157.87242,EDU1,1.5003E+14,4
504,Farrington High - Bldg R,1101 KALIHI ST,HONOLULU,96817,HI,4738200,4738200,15794,MERBL,1958,1,HI001108,EFS1,15003005600,21.330721,-157.87242,EDU1,1.5003E+14,4
505,Farrington High - Bldg H,1101 KALIHI ST,HONOLULU,96817,HI,4428900,4428900,14763,MERBL,1968,1,HI001103,EFS1,15003005600,21.330721,-157.87242,EDU1,1.5003E+14,4
506,Farrington High - Bldg O,1101 KALIHI ST,HONOLULU,96817,HI,3050400,3050400,10168,MERBL,1965,2,HI001106,EFS1,15003005600,21.330721,-157.87242,EDU1,1.5003E+14,4
507,Farrington High - Bldg U,1101 KALIHI ST,HONOLULU,96817,HI,2840400,2840400,9468,MERBL,1975,2,HI001109,EFS1,15003005600,21.330721,-157.87242,EDU1,1.5003E+14,4
508,Stevenson Middle - Bldg F,1202 PROSPECT ST,HONOLULU,96813,HI,2154000,2154000,7180,MERBL,1954,1,HI001575,EFS1,15003004300,21.310328,-157.840243,EDU1,1.5003E+14,4
509,Stevenson Middle - Bldg B,1202 PROSPECT ST,HONOLULU,96813,HI,2130300,2130300,7101,MERBL,1954,1,HI001572,EFS1,15003004300,21.310328,-157.840243,EDU1,1.5003E+14,4
510,Stevenson Middle - Bldg E,1202 PROSPECT ST,HONOLULU,96813,HI,1648800,1648800,5496,MERBL,1954,1,HI001574,EFS1,15003004300,21.310328,-157.840243,EDU1,1.5003E+14,4
511,Kailua Intermediate - Bldg B,211 KUULEI RD,KAILUA,96734,HI,8670300,8670300,28901,MERBL,1953,1,HI001765,EFS1,15003011105,21.394057,-157.736191,EDU1,1.5003E+14,4
512,Kailua Intermediate - Bldg C,211 KUULEI RD,KAILUA,96734,HI,7069500,7069500,23565,MERBL,1955,1,HI001767,EFS1,15003011105,21.394057,-157.736191,EDU1,1.5003E+14,4
513,Kailua Intermediate - Bldg H,211 KUULEI RD,KAILUA,96734,HI,3874800,3874800,12916,MERBL,1970,1,HI001769,EFS1,15003011105,21.394057,-157.736191,EDU1,1.5003E+14,4
514,Kailua Elementary - Bldg C,315 KUULEI RD,KAILUA,96734,HI,1557000,1557000,5190,MERBL,1951,1,HI001167,EFS1,15003011105,21.395074,-157.74136,EDU1,1.5003E+14,4
515,Kailua Elementary - Bldg D,315 KUULEI RD,KAILUA,96734,HI,1379700,1379700,4599,MERBL,1951,1,HI001168,EFS1,15003011105,21.395074,-157.74136,EDU1,1.5003E+14,4
516,Kailua Elementary - Bldg E,315 KUULEI RD,KAILUA,96734,HI,832500,832500,2775,MERBL,1951,1,HI001170,EFS1,15003011105,21.395074,-157.74136,EDU1,1.5003E+14,4
517,Kailua Elementary - Bldg G,315 KUULEI RD,KAILUA,96734,HI,832500,832500,2775,MERBL,1951,1,HI001172,EFS1,15003011105,21.395074,-157.74136,EDU1,1.5003E+14,4
518,Kailua Elementary - Bldg J,315 KUULEI RD,KAILUA,96734,HI,799800,799800,2666,MERBL,1951,1,HI001745,EFS1,15003011105,21.395074,-157.74136,EDU1,1.5003E+14,4
519,KAILUA STATION,21 KAINALU DR,KAILUA,96734,HI,3828200,5742300,15058,MERBL,1800,1,HI000061,EFPS,15003011105,21.396734,-157.739448,GOV2,1.5003E+14,4
520,Waialua High & Interm - Bldg T,67-595A KAHUI ST,WAIALUA,96791,HI,8297100,8297100,27657,MERBL,1980,2,HI001629,EFS1,15003009901,21.565831,-158.126461,EDU1,1.5003E+14,3
521,Waialua High & Interm - Bldg S,67-595A KAHUI ST,WAIALUA,96791,HI,3767700,3767700,12559,MERBL,1978,2,HI001628,EFS1,15003009901,21.565831,-158.126461,EDU1,1.5003E+14,3
522,Waialua High & Interm - Bldg C,67-595A KAHUI ST,WAIALUA,96791,HI,2562300,2562300,8541,MERBL,1972,1,HI001625,EFS1,15003009901,21.565831,-158.126461,EDU1,1.5003E+14,3
523,Waialua High & Interm - Bldg W,67-595A KAHUI ST,WAIALUA,96791,HI,2217600,2217600,7392,MERBL,1971,1,HI001632,EFS1,15003009901,21.565831,-158.126461,EDU1,1.5003E+14,3
524,Waialua High & Interm - Bldg U,67-595A KAHUI ST,WAIALUA,96791,HI,1998300,1998300,6661,MERBL,1985,1,HI001630,EFS1,15003009901,21.565831,-158.126461,EDU1,1.5003E+14,3
525,Waialua High & Interm - Bldg V,67-595A KAHUI ST,WAIALUA,96791,HI,1831200,1831200,6104,MERBL,1993,1,HI001631,EFS1,15003009901,21.565831,-158.126461,EDU1,1.5003E+14,3
526,Waialua High & Interm - Bldg L,67-595A KAHUI ST,WAIALUA,96791,HI,1316100,1316100,4387,MERBL,1965,1,HI001627,EFS1,15003009901,21.565831,-158.126461,EDU1,1.5003E+14,3
527,Waialua High & Intermediate - Bldg T,67-595A Kahui St,Waialua,96791,HI,8297.1,8297.1,27657,MERBL,1980,2,HI000986,EFS1,15003009904,21.56583,-158.12646,EDU1,1.5003E+14,3
528,Waialua High & Intermediate - Bldg S,67-595A Kahui St,Waialua,96791,HI,3767.7,3767.7,12559,MERBL,1978,2,HI000985,EFS1,15003009904,21.56583,-158.12646,EDU1,1.5003E+14,3
529,Waialua High & Intermediate - Bldg C,67-595A Kahui St,Waialua,96791,HI,2562.3,2562.3,8541,MERBL,1972,1,HI000982,EFS1,15003009904,21.56583,-158.12646,EDU1,1.5003E+14,3
530,Waialua High & Intermediate - Bldg W,67-595A Kahui St,Waialua,96791,HI,2217.6,2217.6,7392,MERBL,1971,1,HI000989,EFS1,15003009904,21.56583,-158.12646,EDU1,1.5003E+14,3
531,Waialua High & Intermediate - Bldg U,67-595A Kahui St,Waialua,96791,HI,1998.3,1998.3,6661,MERBL,1985,1,HI000987,EFS1,15003009904,21.56583,-158.12646,EDU1,1.5003E+14,3
532,Waialua High & Intermediate - Bldg V,67-595A Kahui St,Waialua,96791,HI,1831.2,1831.2,6104,MERBL,1993,1,HI000988,EFS1,15003009904,21.56583,-158.12646,EDU1,1.5003E+14,3
533,Waialua High & Intermediate - Bldg L,67-595A Kahui St,Waialua,96791,HI,1316.1,1316.1,4387,MERBL,1965,1,HI000984,EFS1,15003009904,21.56583,-158.12646,EDU1,1.5003E+14,3
534,Leilehua High - Bldg R,1515 CALIFORNIA AVE,WAHIAWA,96786,HI,7943100,7943100,26477,MERBL,1968,2,HI001294,EFS1,15003009200,21.500558,-158.012026,EDU1,1.5003E+14,4
535,Leilehua High - Bldg N,1515 CALIFORNIA AVE,WAHIAWA,96786,HI,4982400,4982400,16608,MERBL,1965,2,HI001293,EFS1,15003009200,21.500558,-158.012026,EDU1,1.5003E+14,4
536,Leilehua High - Bldg EE,1515 CALIFORNIA AVE,WAHIAWA,96786,HI,2219400,2219400,7398,MERBL,1970,1,HI001292,EFS1,15003009200,21.500558,-158.012026,EDU1,1.5003E+14,4
537,Leilehua High - Bldg B,1515 CALIFORNIA AVE,WAHIAWA,96786,HI,1327200,1327200,4424,MERBL,1949,1,HI001291,EFS1,15003009200,21.500558,-158.012026,EDU1,1.5003E+14,4
538,Leilehua High - Bldg Z,1515 CALIFORNIA AVE,WAHIAWA,96786,HI,1176000,1176000,3920,MERBL,1964,1,HI001296,EFS1,15003009200,21.500558,-158.012026,EDU1,1.5003E+14,4
539,Pearl City High - Bldg H,2100 HOOKIEKIE ST,PEARL CITY,96782,HI,7827900,7827900,26093,MERBL,1972,1,HI001464,EFS1,15003007810,21.414834,-157.952268,EDU1,1.5003E+14,4
540,Pearl City High - Bldg O,2100 HOOKIEKIE ST,PEARL CITY,96782,HI,7134600,7134600,23782,MERBL,1979,2,HI001469,EFS1,15003007810,21.414834,-157.952268,EDU1,1.5003E+14,4
541,Momilani Elementary - Bldg B,2100 HOOKIEKIE ST,PEARL CITY,96782,HI,5154000,5154000,17180,MERBL,1972,1,HI001422,EFS1,15003007810,21.413165,-157.954705,EDU1,1.5003E+14,4
542,Pearl City High - Bldg E,2100 HOOKIEKIE ST,PEARL CITY,96782,HI,4987800,4987800,16626,MERBL,1972,2,HI001461,EFS1,15003007810,21.414834,-157.952268,EDU1,1.5003E+14,4
543,Pearl City High - Bldg C,2100 HOOKIEKIE ST,PEARL CITY,96782,HI,4936500,4936500,16455,MERBL,1972,3,HI001459,EFS1,15003007810,21.414834,-157.952268,EDU1,1.5003E+14,4
544,Pearl City High - Bldg D,2100 HOOKIEKIE ST,PEARL CITY,96782,HI,4167300,4167300,13891,MERBL,1972,3,HI001460,EFS1,15003007810,21.414834,-157.952268,EDU1,1.5003E+14,4
545,Pearl City High - Bldg K,2100 HOOKIEKIE ST,PEARL CITY,96782,HI,2811600,2811600,9372,MERBL,1973,1,HI001466,EFS1,15003007810,21.414834,-157.952268,EDU1,1.5003E+14,4
546,Pearl City High - Bldg I,2100 HOOKIEKIE ST,PEARL CITY,96782,HI,2041200,2041200,6804,MERBL,1976,1,HI001465,EFS1,15003007810,21.414834,-157.952268,EDU1,1.5003E+14,4
547,Pearl City High - Bldg F,2100 HOOKIEKIE ST,PEARL CITY,96782,HI,1114500,1114500,3715,MERBL,1972,1,HI001462,EFS1,15003007810,21.414834,-157.952268,EDU1,1.5003E+14,4
548,Mililani High - Bldg B,95-1200 MEHEULA PKWY,MILILANI,96789,HI,7644000,7644000,25480,MERBL,1973,2,HI001368,EFS1,15003008907,21.45336,-158.009964,EDU1,1.5003E+14,4
549,Mililani High - Bldg E,95-1200 MEHEULA PKWY,MILILANI,96789,HI,6649500,6649500,22165,MERBL,1987,1,HI001370,EFS1,15003008907,21.45336,-158.009964,EDU1,1.5003E+14,4
550,Mililani High - Bldg L,95-1200 MEHEULA PKWY,MILILANI,96789,HI,5688600,5688600,18962,MERBL,1976,2,HI001375,EFS1,15003008907,21.45336,-158.009964,EDU1,1.5003E+14,4
551,Mililani High - Bldg G,95-1200 MEHEULA PKWY,MILILANI,96789,HI,4206900,4206900,14023,MERBL,1980,2,HI001371,EFS1,15003008907,21.45336,-158.009964,EDU1,1.5003E+14,4
552,Mililani High - Bldg K,95-1200 MEHEULA PKWY,MILILANI,96789,HI,3766200,3766200,12554,MERBL,1975,2,HI001374,EFS1,15003008907,21.45336,-158.009964,EDU1,1.5003E+14,4
553,Mililani High - Bldg N,95-1200 MEHEULA PKWY,MILILANI,96789,HI,3359100,3359100,11197,MERBL,1981,2,HI001376,EFS1,15003008907,21.45336,-158.009964,EDU1,1.5003E+14,4
554,Mililani High - Bldg O,95-1200 MEHEULA PKWY,MILILANI,96789,HI,3180600,3180600,10602,MERBL,1991,2,HI001377,EFS1,15003008907,21.45336,-158.009964,EDU1,1.5003E+14,4
555,Mililani High - Bldg C,95-1200 MEHEULA PKWY,MILILANI,96789,HI,2555400,2555400,8518,MERBL,1994,2,HI001369,EFS1,15003008907,21.45336,-158.009964,EDU1,1.5003E+14,4
556,Mililani High - Bldg J,95-1200 MEHEULA PKWY,MILILANI,96789,HI,2457300,2457300,8191,MERBL,1976,1,HI001373,EFS1,15003008907,21.45336,-158.009964,EDU1,1.5003E+14,4
557,Mililani High - Bldg I,95-1200 MEHEULA PKWY,MILILANI,96789,HI,567300,567300,1891,MERBL,1980,1,HI001372,EFS1,15003008907,21.45336,-158.009964,EDU1,1.5003E+14,4
558,Wheeler Middle - Bldg E,1 WILIKINA DR,WAHIAWA,96786,HI,7369500,7369500,24565,MERBL,1969,2,HI001893,EFS1,15003009000,21.486605,-158.038808,EDU1,1.5003E+14,4
559,Wheeler Middle - Bldg D,1 WILIKINA DR,WAHIAWA,96786,HI,5301600,5301600,17672,MERBL,1970,2,HI001892,EFS1,15003009000,21.486605,-158.038808,EDU1,1.5003E+14,4
560,Wheeler Elementary - Bldg B,1 WILIKINA DR,WAHIAWA,96786,HI,4722000,4722000,15740,MERBL,1971,2,HI001886,EFS1,15003009000,21.487798,-158.03806,EDU1,1.5003E+14,4
561,Wheeler Middle - Bldg C,1 WILIKINA DR,WAHIAWA,96786,HI,3827400,3827400,12758,MERBL,1969,2,HI001891,EFS1,15003009000,21.486605,-158.038808,EDU1,1.5003E+14,4
562,Wheeler Elementary - Bldg A,1 WILIKINA DR,WAHIAWA,96786,HI,3608100,3608100,12027,MERBL,1966,2,HI001885,EFS1,15003009000,21.487798,-158.03806,EDU1,1.5003E+14,4
563,Wheeler Middle - Bldg H,1 WILIKINA DR,WAHIAWA,96786,HI,3380100,3380100,11267,MERBL,1969,1,HI001896,EFS1,15003009000,21.486605,-158.038808,EDU1,1.5003E+14,4
564,Wheeler Elementary - Bldg C,1 WILIKINA DR,WAHIAWA,96786,HI,2593800,2593800,8646,MERBL,1988,2,HI001887,EFS1,15003009000,21.487798,-158.03806,EDU1,1.5003E+14,4
565,Wheeler Elementary - Bldg G,1 WILIKINA DR,WAHIAWA,96786,HI,2412300,2412300,8041,MERBL,1991,1,HI001888,EFS1,15003009000,21.487798,-158.03806,EDU1,1.5003E+14,4
566,Wheeler Middle - Bldg F,1 WILIKINA DR,WAHIAWA,96786,HI,2318700,2318700,7729,MERBL,1970,2,HI001894,EFS1,15003009000,21.486605,-158.038808,EDU1,1.5003E+14,4
567,Wheeler Middle - Bldg B,1 WILIKINA DR,WAHIAWA,96786,HI,1511700,1511700,5039,MERBL,1970,1,HI001890,EFS1,15003009000,21.486605,-158.038808,EDU1,1.5003E+14,4
568,Wheeler Middle - Bldg J,1 WILIKINA DR,WAHIAWA,96786,HI,1128000,1128000,3760,MERBL,1978,1,HI001898,EFS1,15003009000,21.486605,-158.038808,EDU1,1.5003E+14,4
569,Wheeler Middle - Bldg I,1 WILIKINA DR,WAHIAWA,96786,HI,550200,550200,1834,MERBL,1978,1,HI001897,EFS1,15003009000,21.486605,-158.038808,EDU1,1.5003E+14,4
570,Nanakuli High & Interm - Bldg E,89-778 HALEAKALA AVE,WAIANAE,96792,HI,7327200,7327200,24424,MERBL,1972,1,HI001428,EFS1,15003009601,21.388249,-158.132759,EDU1,1.50039E+14,4
571,Nanakuli High & Interm - Bldg J,89-778 HALEAKALA AVE,WAIANAE,96792,HI,7117200,7117200,23724,MERBL,1979,2,HI001429,EFS1,15003009601,21.388249,-158.132759,EDU1,1.50039E+14,4
572,Nanakuli High & Interm - Bldg B,89-778 HALEAKALA AVE,WAIANAE,96792,HI,6465300,6465300,21551,MERBL,1971,1,HI001425,EFS1,15003009601,21.388249,-158.132759,EDU1,1.50039E+14,4
573,Nanakuli High & Interm - Bldg C,89-778 HALEAKALA AVE,WAIANAE,96792,HI,6269700,6269700,20899,MERBL,1979,1,HI001426,EFS1,15003009601,21.388249,-158.132759,EDU1,1.50039E+14,4
574,Nanakuli High & Interm - Bldg Q,89-778 HALEAKALA AVE,WAIANAE,96792,HI,5067000,5067000,16890,MERBL,1973,1,HI001430,EFS1,15003009601,21.388249,-158.132759,EDU1,1.50039E+14,4
575,Nanakuli High & Interm - Bldg D,89-778 HALEAKALA AVE,WAIANAE,96792,HI,3342900,3342900,11143,MERBL,1995,1,HI001427,EFS1,15003009601,21.388249,-158.132759,EDU1,1.50039E+14,4
576,Nanakuli High & Interm - Bldg R,89-778 HALEAKALA AVE,WAIANAE,96792,HI,2207700,2207700,7359,MERBL,1971,1,HI001431,EFS1,15003009601,21.388249,-158.132759,EDU1,1.50039E+14,4
577,Nanakuli High & Interm - Bldg U,89-778 HALEAKALA AVE,WAIANAE,96792,HI,1498800,1498800,4996,MERBL,1973,1,HI001432,EFS1,15003009601,21.388249,-158.132759,EDU1,1.50039E+14,4
578,Nanakuli High & Intermediate - Bldg E,89-778 Haleakala Ave,Waianae,96792,HI,7327.2,7327.2,24424,MERBL,1972,1,HI000846,EFS1,15003940002,21.38825,-158.13276,EDU1,1.50039E+14,4
579,Nanakuli High & Intermediate - Bldg J,89-778 Haleakala Ave,Waianae,96792,HI,7117.2,7117.2,23724,MERBL,1979,2,HI000847,EFS1,15003940002,21.38825,-158.13276,EDU1,1.50039E+14,4
580,Nanakuli High & Intermediate - Bldg B,89-778 Haleakala Ave,Waianae,96792,HI,6465.3,6465.3,21551,MERBL,1971,1,HI000843,EFS1,15003940002,21.38825,-158.13276,EDU1,1.50039E+14,4
581,Nanakuli High & Intermediate - Bldg C,89-778 Haleakala Ave,Waianae,96792,HI,6269.7,6269.7,20899,MERBL,1979,1,HI000844,EFS1,15003940002,21.38825,-158.13276,EDU1,1.50039E+14,4
582,Nanakuli High & Intermediate - Bldg Q,89-778 Haleakala Ave,Waianae,96792,HI,5067,5067,16890,MERBL,1973,1,HI000848,EFS1,15003940002,21.38825,-158.13276,EDU1,1.50039E+14,4
583,Nanakuli High & Intermediate - Bldg D,89-778 Haleakala Ave,Waianae,96792,HI,3342.9,3342.9,11143,MERBL,1995,1,HI000845,EFS1,15003940002,21.38825,-158.13276,EDU1,1.50039E+14,4
584,Nanakuli High & Intermediate - Bldg R,89-778 Haleakala Ave,Waianae,96792,HI,2207.7,2207.7,7359,MERBL,1971,1,HI000849,EFS1,15003940002,21.38825,-158.13276,EDU1,1.50039E+14,4
585,Nanakuli High & Intermediate - Bldg U,89-778 Haleakala Ave,Waianae,96792,HI,1498.8,1498.8,4996,MERBL,1973,1,HI000850,EFS1,15003940002,21.38825,-158.13276,EDU1,1.50039E+14,4
586,Castle High - Bldg BB,45-386 KANEOHE BAY DR,KANEOHE,96744,HI,6997200,6997200,23324,MERBL,1980,1,HI001606,EFS1,15003010602,21.403144,-157.794583,EDU1,1.5003E+14,4
587,Castle High - Bldg EE,45-386 KANEOHE BAY DR,KANEOHE,96744,HI,6699300,6699300,22331,MERBL,1997,1,HI001612,EFS1,15003010602,21.403144,-157.794583,EDU1,1.5003E+14,4
588,Castle High - Bldg S,45-386 KANEOHE BAY DR,KANEOHE,96744,HI,2326200,2326200,7754,MERBL,1960,1,HI001081,EFS1,15003010602,21.403144,-157.794583,EDU1,1.5003E+14,4
589,Castle High - Bldg Q,45-386 KANEOHE BAY DR,KANEOHE,96744,HI,2118900,2118900,7063,MERBL,1950,1,HI001080,EFS1,15003010602,21.403144,-157.794583,EDU1,1.5003E+14,4
590,Castle High - Bldg E,45-386 KANEOHE BAY DR,KANEOHE,96744,HI,2034300,2034300,6781,MERBL,1955,1,HI001611,EFS1,15003010602,21.403144,-157.794583,EDU1,1.5003E+14,4
591,Castle High - Bldg F,45-386 KANEOHE BAY DR,KANEOHE,96744,HI,2016900,2016900,6723,MERBL,1950,1,HI001613,EFS1,15003010602,21.403144,-157.794583,EDU1,1.5003E+14,4
592,Castle High - Bldg K,45-386 KANEOHE BAY DR,KANEOHE,96744,HI,1390500,1390500,4635,MERBL,1958,1,HI001615,EFS1,15003010602,21.403144,-157.794583,EDU1,1.5003E+14,4
593,Castle High - Bldg D,45-386 KANEOHE BAY DR,KANEOHE,96744,HI,1338000,1338000,4460,MERBL,1955,1,HI001609,EFS1,15003010602,21.403144,-157.794583,EDU1,1.5003E+14,4
594,Castle High - Bldg M,45-386 KANEOHE BAY DR,KANEOHE,96744,HI,1287300,1287300,4291,MERBL,1958,1,HI001079,EFS1,15003010602,21.403144,-157.794583,EDU1,1.5003E+14,4
595,Castle High - Bldg C,45-386 KANEOHE BAY DR,KANEOHE,96744,HI,1140000,1140000,3800,MERBL,1955,1,HI001607,EFS1,15003010602,21.403144,-157.794583,EDU1,1.5003E+14,4
596,Castle High - Bldg Y,45-386 KANEOHE BAY DR,KANEOHE,96744,HI,1080000,1080000,3600,MERBL,1967,1,HI001083,EFS1,15003010602,21.403144,-157.794583,EDU1,1.5003E+14,4
597,Castle High - Bldg L,45-386 KANEOHE BAY DR,KANEOHE,96744,HI,625200,625200,2084,MERBL,1958,1,HI001078,EFS1,15003010602,21.403144,-157.794583,EDU1,1.5003E+14,4
598,Waipahu High - Bldg N,94-1211 FARRINGTON HWY,WAIPAHU,96797,HI,6944700,6944700,23149,MERBL,1977,1,HI001705,EFS1,15003008701,21.387585,-157.993974,EDU1,1.5003E+14,4
599,Waipahu High - Bldg I,94-1211 FARRINGTON HWY,WAIPAHU,96797,HI,6015600,6015600,20052,MERBL,1967,2,HI001702,EFS1,15003008701,21.387585,-157.993974,EDU1,1.5003E+14,4
600,Waipahu High - Bldg U,94-1211 FARRINGTON HWY,WAIPAHU,96797,HI,5113800,5113800,17046,MERBL,1988,2,HI001707,EFS1,15003008701,21.387585,-157.993974,EDU1,1.5003E+14,4
601,Waipahu High - Bldg F,94-1211 FARRINGTON HWY,WAIPAHU,96797,HI,4133700,4133700,13779,MERBL,1969,2,HI001699,EFS1,15003008701,21.387585,-157.993974,EDU1,1.5003E+14,4
602,Waipahu High - Bldg J,94-1211 FARRINGTON HWY,WAIPAHU,96797,HI,3859800,3859800,12866,MERBL,1967,1,HI001703,EFS1,15003008701,21.387585,-157.993974,EDU1,1.5003E+14,4
603,Waipahu High - Bldg Q,94-1211 FARRINGTON HWY,WAIPAHU,96797,HI,3604500,3604500,12015,MERBL,1988,2,HI001706,EFS1,15003008701,21.387585,-157.993974,EDU1,1.5003E+14,4
604,Waipahu High - Bldg H,94-1211 FARRINGTON HWY,WAIPAHU,96797,HI,3011400,3011400,10038,MERBL,1967,2,HI001701,EFS1,15003008701,21.387585,-157.993974,EDU1,1.5003E+14,4
605,Waipahu High - Bldg E,94-1211 FARRINGTON HWY,WAIPAHU,96797,HI,2919600,2919600,9732,MERBL,1969,2,HI001698,EFS1,15003008701,21.387585,-157.993974,EDU1,1.5003E+14,4
606,Waipahu High - Bldg C,94-1211 FARRINGTON HWY,WAIPAHU,96797,HI,2574900,2574900,8583,MERBL,1967,1,HI001696,EFS1,15003008701,21.387585,-157.993974,EDU1,1.5003E+14,4
607,Waipahu High - Bldg B,94-1211 FARRINGTON HWY,WAIPAHU,96797,HI,2538600,2538600,8462,MERBL,1971,1,HI001695,EFS1,15003008701,21.387585,-157.993974,EDU1,1.5003E+14,4
608,Waipahu High - Bldg D,94-1211 FARRINGTON HWY,WAIPAHU,96797,HI,919200,919200,3064,MERBL,1967,1,HI001697,EFS1,15003008701,21.387585,-157.993974,EDU1,1.5003E+14,4
609,Waipahu High - Bldg A,94-1211 FARRINGTON HWY,WAIPAHU,96797,HI,710400,710400,2368,MERBL,1968,1,HI001694,EFS1,15003008701,21.387585,-157.993974,EDU1,1.5003E+14,4
